,Old Ref ID,Ref ID,Record Last Updated (dd/mm/yyyy),Operator (or Applicant),Site Name,Technology Type,Storage Type,Storage Co-location REPD Ref ID,Installed Capacity (MWelec),Share Community Scheme,CHP Enabled,CfD Allocation Round,RO Banding (ROC/MWh),FiT Tariff (p/kWh),CfD Capacity (MW),Turbine Capacity,No. of Turbines,Height of Turbines (m),Mounting Type for Solar,Development Status,Development Status (short),Are they re-applying (New REPD Ref),Are they re-applying (Old REPD Ref) ,Address,County,Region,Country,Post Code,X-coordinate,Y-coordinate,Planning Authority,Planning Application Reference,Appeal Reference,Secretary of State Reference,Type of Secretary of State Intervention,Judicial Review,Offshore Wind Round,Planning Application Submitted,Planning Application Withdrawn,Planning Permission Refused,Appeal Lodged,Appeal Withdrawn,Appeal Refused,Appeal Granted,Planning Permission Granted,Secretary of State - Intervened,Secretary of State - Refusal,Secretary of State - Granted,Planning Permission Expired,Under Construction,Operational,Heat Network Ref,Solar Site Area (sqm),lat,lon,geometry
901,1009,11936339,2025-12-08,Fortum (formerly Peel Environmental),South Clyde Energy Centre,EfW Incineration,,,45.00,,No,,,,,,,,,Under Construction,Under Construction,,,"Land to the south of King George V Dock, Glasgow",Strathclyde,Scotland,Scotland,G51 4FE,252615,665698,Glasgow City,12/01293/DC,,,,,,2012-06-25,,,,,,,,,,,2017-09-11,2023-01-03,,,,55.86186,-4.35651,POINT (-4.35651 55.86186)
3603,4418,11139218,2025-11-09,Scottish and Southern Energy (SSE),Strathy South,Wind Onshore,,,208.00,,No,AR5,,,231.00,6.20,35,200.00,,Under Construction,Under Construction,,,"South of Strathy, Sutherland",Highland,Scotland,Scotland,,279050,952050,Scottish Government (S36),EC00003113,WIN-270-2,,,,,2009-02-01,,,2014-09-03,,,,,,,,2027-11-24,2025-01-06,,,,58.43995,-4.07353,POINT (-4.07353 58.43995)
3741,4571,11854098,2025-08-04,Amegni Renewables,Carno 3,Wind Onshore,,,45.00,,,AR6,,,45.00,3.40,13,149.90,,Planning Permission Granted,Awaiting Construction,,,"Carno, Powys, SY17 5JS",Powys,Wales,Wales,,294433,297106,Powys,P/2010/0762,,,,,,2010-07-15,,,,,,,,,,,2022-05-26,,,,,52.56151,-3.55874,POINT (-3.55874 52.56151)
4785,5949,12673439,2025-08-04,Vattenfall,Ourack,Wind Onshore,,12727,105.00,No,,,,,,5.80,18,180.00,,Planning Permission Granted,Awaiting Construction,,,6km north of Granton-on-Spey,Highland,Scotland,Scotland,,305000,838876,Scottish Government (S36),ECU00001999,,,,,,2022-10-18,,,,,,,,,,,,,,,,57.43026,-3.58383,POINT (-3.58383 57.43026)
4820,6005,11986852,2025-11-04,Boralex/Infinergy,Limekiln Wind Farm ,Wind Onshore,,,79.80,,No,AR5,,,53.00,4.20,19,149.90,,Operational,Operational,,4393,"Limekilns Estate, Reay, Thurso",Highland,Scotland,Scotland,,298654,961356,Scottish Government (S36),EC00005269,WIN-270-8,,,,,2016-06-15,,,2017-04-07,,,,,,,,2027-05-17,,2025-01-04,,,58.52848,-3.74205,POINT (-3.74205 58.52848)
5106,6550,12723020,2025-09-06,Norchard Solar Farm Limited,Norchard Farm,Solar Photovoltaics,,,8.75,,,,,,,,,,Ground,Planning Permission Granted,Awaiting Construction,,,"Norchard Farm, Norchard Lane, Crossway Green, Stourport-On-Severn, Hereford and Worcester",Hereford and Worcester,West Midlands,England,DY13 9SN,384645,268601,Wychavon,W/23/01483/FUL,,,,,,2023-07-19,,,,,,,2024-11-10,,,,2027-10-11,,,,119000.00,52.3153,-2.22667,POINT (-2.22667 52.3153)
5193,6734,12548673,2025-11-08,Scottish & Southern (SSE),Tangy 4 Wind Farm,Wind Onshore,,,80.00,,,,,,,,16,149.90,,Planning Permission Granted,Awaiting Construction,,,"Tangy, Kilkenzie, Campbeltown, Argyll And Bute",Argyll and Bute,Scotland,Scotland,PA28 6QD,168500,628500,Scottish Government (S36),ECU00000673,,,,,,2018-09-06,,,,,,,,,,,2024-12-20,,,,,55.49529,-5.66658,POINT (-5.66658 55.49529)
5251,6827,12129175,2025-08-04,OnPath Energy Limited,Lethans Wind Farm ,Wind Onshore,,,105.60,,,AR6,,,120.00,4.80,22,220.00,,Planning Permission Granted,Awaiting Construction,,4603,"Land to the north east of New Cumnock, Lethans, ",East Ayrshire,Scotland,Scotland,,268331,616048,Scottish Government (S36),ECU00001856,,,,,,2019-05-22,,,,,,,,,,,2026-06-18,,,,,55.4206,-4.08181,POINT (-4.08181 55.4206)
5341,6947,11849966,2025-11-09,SSE Renewables,Coire Glas ,Pumped Storage Hydroelectricity,,,1500.00,,,,,,,,,,,Planning Permission Granted,Awaiting Construction,,6870,"Land At Coire Glas, Laggan, Newtonmore, ",Highland,Scotland,Scotland,PH34 4EA,226693,796765,Scottish Government (S36),ECU00000577,,,,,,2018-03-28,,,,,,,,,,,2027-10-15,,,,,57.02933,-4.85716,POINT (-4.85716 57.02933)
5511,7175,12628070,2025-08-04,INRG Solar,Little Crow Solar Park,Battery,Co-located with RE,6557,90.00,,,,,,,,,,,Planning Permission Granted,Awaiting Construction,,,"Land located 0.6km to the east of the British Steel site at Scunthorpe, ",Lincolnshire,Yorkshire and Humber,England,DN16 1XP,493116,412070,The Planning Inspectorate - National Infrastructure,EN010101,,,,,,2020-12-04,,,,,,,2022-05-04,,,,2027-04-05,,,,,53.59694,-0.59449,POINT (-0.59449 53.59694)
5697,7456,12548310,2025-12-06,Scottish Power Renewables,Hagshaw Hill (Repowering),Wind Onshore,,,84.00,,,AR4,,,79.80,,14,200.00,,Planning Permission Granted,Awaiting Construction,,,"Hagshaw Hill Wind Farm, Douglas, Lanark ",South Lanarkshire,Scotland,Scotland,ML11 0RR,282089,631116,Scottish Government (S36),ECU00000737,,,,,,2018-12-03,,,,,,,,,,,2025-02-26,,,,,55.55942,-3.87099,POINT (-3.87099 55.55942)
5733,7519,12455137,2025-12-05,BayWa r.e. UK Limited,Corner Copse Solar Farm,Solar Photovoltaics,,,49.90,,,AR4,,,49.90,,,,Ground,Under Construction,Under Construction,,,"Corner Copse Solar Farm, Stanton Fitzwarren, Swindon, ",Wiltshire,South West,England,SN6,418268,190691,Swindon,S/19/1097,,,,,,2019-07-31,,,,,,,,,,,2023-06-25,,,,955200.00,51.61475,-1.73756,POINT (-1.73756 51.61475)
5734,7520,12455137,2025-12-05,BayWa r.e. UK Limited,Corner Copse Solar Farm,Battery,Co-located with RE,7519,,,,,,,,,,,Ground,Under Construction,Under Construction,,,"Corner Copse Solar Farm, Stanton Fitzwarren, Swindon, ",Wiltshire,South West,England,SN6,418268,190691,Swindon,S/19/1097,,,,,,2019-07-31,,,,,,,,,,,2023-06-25,,,,,51.61475,-1.73756,POINT (-1.73756 51.61475)
5752,7551,12450560,2025-08-04,Carlton Power,Langage Solar Park,Battery,Co-located with RE,1039,0.50,,,,,,,,,,,Planning Permission Granted,Awaiting Construction,,,"Langage Solar Park, Lower Langage Farm, Plymouth, Devon",Devon,South West,England,PL7 5AQ,257480,56426,South Hams,1185/19/FUL,,,,,,2019-06-06,,,,,,,2019-04-10,,,,2022-10-04,,,,,50.3904,-4.00629,POINT (-4.00629 50.3904)
5765,7572,12548310,2025-12-06,Scottish Power Renewables,Hagshaw Hill,Battery,Co-located with RE,7456,20.00,,,,,,,,,,,Planning Permission Granted,Awaiting Construction,,,"Hagshaw Hill Wind Farm, Douglas, Lanark ",South Lanarkshire,Scotland,Scotland,ML11 0RR,282089,631116,Scottish Government (S36),ECU00000737,,,,,,2018-12-03,,,,,,,,,,,2025-02-26,,,,,55.55942,-3.87099,POINT (-3.87099 55.55942)
5853,7690,12627541,2025-11-09,MVV Environment,Medworth EfW,EfW Incineration,,,58.00,,Yes,,,,,,,,,Planning Permission Granted,Awaiting Construction,,,"Land on the Algores Way Industrial Estate to the west of Algores Way in Wisbech, Fenland, Cambridge",Cambridgeshire,Eastern,England,PE13 2TQ,545564,307955,The Planning Inspectorate - National Infrastructure,EN010110,,,,,,2022-07-08,,,,,,,,,,,,,,,,52.6498,0.15029,POINT (0.15029 52.6498)
5865,7708,12507874,2025-11-04,Infinergy / Boralex,Limekiln Wind Farm (Extension),Wind Onshore,,11312,21.00,,No,AR5,,,53.00,,5,149.90,,Operational,Operational,,,"Broubster Estate, Acheveilan North Estate and Limekiln Estate, southeast of Reay, Caithness",Highland,Scotland,Scotland,,300298,961309,Scottish Government (S36),ECU00002070,,,,,,2020-05-14,,,,,,,2022-06-05,,,,2027-05-06,,2025-01-04,,,58.52844,-3.71381,POINT (-3.71381 58.52844)
5881,7734,12517515,2025-10-06,Uniper UK,EMERGE (East Midlands Energy Re-Generation),EfW Incineration,,,49.90,,Yes,,,,,,,,,Planning Permission Granted,Awaiting Construction,,,"Ratcliffe Power Station, Ratcliffe-on-Soar, Nottingham, ",Nottinghamshire,East Midlands,England,NG11 0EE,450445,330468,Rushcliffe,ES/4154,,,,,,2020-07-16,,,,,,,,,,,2024-07-23,,,,,52.86933,-1.25205,POINT (-1.25205 52.86933)
6095,8057,12523682,2025-08-04,Muirden Energy,Meall Buidhe Wind Farm,Wind Onshore,,,40.00,,,,,,,,8,150.00,,Appeal Granted,Awaiting Construction,,,"Land 4420M NW Of, Croick Estate, Ardgay, Highlands",Highland,Scotland,Scotland,IV24 3BW,245556,895446,Highland,20/02659/FUL,22/00046/REFSU,,,,,2020-08-21,,,2022-10-20,,,,,,,,2026-06-14,,,,,57.92154,-4.60915,POINT (-4.60915 57.92154)
6139,8136,12584429,2025-12-05,Aura Power,Kemble Wick,Solar Photovoltaics,,,49.90,,No,AR5,,,49.00,,,,Ground,Under Construction,Under Construction,,,"Kemble Wick, Cirencester,",Gloucestershire,South West,England,GL7 6EH,397998,195730,Cotswold,PL/2021/06919,,,,,,2021-07-27,,,,,,,,,,,2027-03-25,2025-01-02,,,197800.00,51.66035,-2.03034,POINT (-2.03034 51.66035)
6247,8305,12432154,2025-10-06,Infinergy Limited,Lochluichart Wind Farm Extension 2 ,Wind Onshore,,,24.00,,No,,,,,,5,149.90,,Planning Permission Granted,Awaiting Construction,,6377,SW Of Aultguish Inn Garve,Highland,Scotland,Scotland,IV23 2PQ,235136,870439,Highland,21/02985/FUL,,,,,,2021-06-22,,,,,,,,,,,2026-01-30,,,,,57.69346,-4.76759,POINT (-4.76759 57.69346)
6248,8308,12547221,2025-11-09,EDF Energy Renewables,Bloy’s Grove Solar Farm,Solar Photovoltaics,,,49.90,,No,,,,,,,,Ground,Planning Permission Granted,Awaiting Construction,,,"Kiln Lane, Swainsthorpe, Norwich",Norfolk,Eastern,England,NR14 8PY,621595,299905,South Norfolk,2021/2495,,,,,,2021-11-09,,,,,,,2022-04-08,,,,,,,,796000.00,52.55185,1.26714,POINT (1.26714 52.55185)
6253,8344,12615151,2025-11-06,Woolffords Wind Energy Limited,Woolfords Farm - Onshore Wind Turbines,Wind Onshore,,,19.80,,No,,,,,,3,180.00,,Planning Permission Granted,Awaiting Construction,,,"940M NW/O  Woolfords Farm, C203 From Woolfords To A70 At Carnwath Woolfords West Calder",Lothian,Scotland,Scotland,EH55 8LH,299380,657570,South Lanarkshire,P/22/0031,,,,,,2022-01-17,,,,,,,,,,,2030-05-30,,,,,55.8009,-3.60669,POINT (-3.60669 55.8009)
6254,8347,12547536,2025-10-03,Harmony Energy,Windmill Farm  Solar Farm ,Solar Photovoltaics,,8348,30.40,,No,,,,,,,,Ground,Appeal Granted,Awaiting Construction,,,Great Sike Road,North Yorkshire,Yorkshire and Humber,England,YO17 6SB,478730,474826,North Yorkshire,23/00046/MFULE, 23/00046/MFULE ,,,,,2023-01-25,,,2024-05-01,,,,,,,,2028-02-26,,,,528600.00,54.16321,-0.79571,POINT (-0.79571 54.16321)
6255,8348,12547536,2025-10-03,Harmony Energy,Windmill Farm Solar Farm ,Battery,Co-located with RE,8347,12.63,,No,,,,,,,,,Appeal Granted,Awaiting Construction,,,Great Sike Road,North Yorkshire,Yorkshire and Humber,England,YO17 6SB,478730,474826,North Yorkshire,23/00046/MFULE, 23/00046/MFULE ,,,,,2023-01-25,,,2024-04-30,,,,,,,,,,,,,54.16321,-0.79571,POINT (-0.79571 54.16321)
6324,8468,12551332,2025-08-07,Energiekontor UK Limited / Uniper,Garbet Windfarm - Wind Farm & Storage facility,Wind Onshore,,8469,46.20,,No,AR5,,,46.20,,8,200.00,,Under Construction,Under Construction,,7869,SE/O Dufftown Keith Grampian,Grampian,Scotland,Scotland,AB55,332299,840059,Moray,21/00020/EIA,,,,,,2021-01-11,,,2021-12-01,,,,,,,,2027-09-26,2025-01-03,,,,57.44577,-3.12963,POINT (-3.12963 57.44577)
6325,8469,12551332,2025-08-07,Energiekontor UK Limited,Garbet Windfarm - Wind Farm & Storage facility,Battery,Co-located with RE,8468,3.00,,No,,,,,,,,,Under Construction,Under Construction,,7870,Garbet Windfarm Site 5.5km SE/O Dufftown Keith Grampian,Grampian,Scotland,Scotland,AB55,332299,840059,Moray,21/00020/EIA,,,,,,2021-01-11,,,2021-12-01,,,,,,,,2027-09-26,2025-01-03,,,,57.44577,-3.12963,POINT (-3.12963 57.44577)
6333,8483,12552300,2025-10-03,JBM Solar Projects Limited,Belvoir Estate - Solar farm,Solar Photovoltaics,,,49.90,,No,,,,,,,,Ground ,Appeal Granted,Awaiting Construction,,,Land To The South West Of Easthorpe Lane Muston,Lincolnshire,East Midlands,England,NG32 1PE,481993,333726,Melton,22/00537/FUL,APP/Y2430/W/24/3340258 ,,,,,2022-04-01,,2023-11-09,2024-03-07,,,,,,,,2028-02-25,,,,1035300.00,52.89474,-0.78265,POINT (-0.78265 52.89474)
6346,8501,12554762,2025-11-08,NextPower Horton Wood Limited,Horton Wood - Solar park,Solar Photovoltaics,,,49.90,,No,AR6,,,60.00,,,,Ground,Planning Permission Granted,Awaiting Construction,,,Horton Wood Stack Road Horton Kirby,Kent,South East,England,DA4 9JE,555461,168139,Sevenoaks,22/02599/FUL,,,,,,2022-10-12,,,,,,,,,,,2026-02-17,,,,728900.00,51.391,0.23301,POINT (0.23301 51.391)
6354,8517,12556397,2025-11-03,Renewable Connections Developments Limited,Vicarage Drove - Solar farm & Battery storage,Solar Photovoltaics,,8518,49.90,,No,,,,,,,,Ground,Planning Permission Granted,Awaiting Construction,,,"Land at Vicarage Drove, Bicker, Boston",Lincolnshire,East Midlands,England,PE20 3BF,519567,338547,Boston,B/21/0443,,,,,,2021-10-05,,,,,,,,,,,2026-02-17,,,,804600.00,52.93102,-0.22261,POINT (-0.22261 52.93102)
6355,8518,12556397,2025-11-03,Renewable Connections Developments Limited,Vicarage Drove - Solar farm & Battery storage,Battery,Co-located with RE,8517,20.50,,No,,,,,,,,,Planning Permission Granted,Awaiting Construction,,,"Land at Vicarage Drove, Bicker, Boston",Lincolnshire,East Midlands,England,PE20 3BF,519567,338547,Boston,B/21/0443,,,,,,2021-10-05,,,,,,,,,,,2026-02-17,,,,,52.93102,-0.22261,POINT (-0.22261 52.93102)
6530,9090,12570428,2025-12-05,Novus Renewable Services / Innova Renewables ,Ducklington Solar Farm,Solar Photovoltaics,,,36.00,,No,AR6,,,18.00,,,,Ground,Under Construction,Under Construction,,,Ducklington Farm Course Hill Lane Ducklington Witney ,Oxfordshire,South East,England,OX29 7YL ,434310,207429,West Oxfordshire,21/01236/FUL,,,,,,2021-04-08,,,,,,,2022-01-03,,,,2025-03-01,2025-01-04,,,172000.00,51.7645,-1.50424,POINT (-1.50424 51.7645)
6531,9091,12570886,2025-08-08,Trevarthian Renewables Limited,Trevarthian Farmhouse - Solar PV Farm & Battery Energy Storage,Solar Photovoltaics,,9092,49.90,,No,,,,,,,,Ground,Planning Application Submitted,Application Submitted,,,Trevarthian Farmhouse Plain An Gwarry Marazion,Cornwall,South West,England,TR17 0DU ,153593,32040,Cornwall,PA25/04503,,,,,,2025-06-13,,,,,,,,,,,,,,,253000.00,50.13713,-5.44965,POINT (-5.44965 50.13713)
6532,9092,12570886,2025-08-08,Trevarthian Renewables Limited,Trevarthian Farmhouse - Solar PV Farm & Battery Energy Storage,Battery,Co-located with RE,9091,,,No,,,,,,,,,Planning Application Submitted,Application Submitted,,,Trevarthian Farmhouse Plain An Gwarry Marazion,Cornwall,South West,England,TR17 0DU ,153593,32040,Cornwall,PA25/04503,,,,,,2025-06-13,,,,,,,,,,,,,,,,50.13713,-5.44965,POINT (-5.44965 50.13713)
6587,9184,12575285,2025-08-08,Anesco Limited,Greenfield Road - Samphill Solar Farm,Solar Photovoltaics,,,43.45,,No,,,,,,,,Ground,Revised,Revised,19175,,"Samphill Solar Farm, Greenfield Road, Westoning",Bedfordshire,Eastern,England,MK45 4SP,505049,231352,Central Bedfordshire,CB/21/02583/FULL,,,,,,2021-06-04,2022-07-30,,,,,,,,,,,,,,665700.00,51.97072,-0.47221,POINT (-0.47221 51.97072)
6605,9227,12576866,2025-12-05,Drax Power Limited / Stantec UK,Cruachan Hydro Expansion,Pumped Storage Hydroelectricity,,,600.00,,No,,,,,,,,,Planning Permission Granted,Awaiting Construction,,,"E/O Cruachan, 1 Power Station On The Northern Banks Of Lochawe, Taynuilt",Strathclyde,Scotland,Scotland,PA35,200669,731362,Scottish Government (S36),ECU00004492,,,,,,2022-05-12,,,,,,,,,,,2030-07-21,,,,,56.43222,-5.23439,POINT (-5.23439 56.43222)
6689,9397,12584335,2025-08-04,North Deane Generation Limited,"Stainland Road, Salterhebble - Battery Storage Facility",Battery,Stand-alone Storage,,25.00,,No,,,,,,,,,Planning Permission Granted,Awaiting Construction,,,South Of Sub Station Stainland Road Elland Calderdale,West Yorkshire,Yorkshire and Humber,England,HX4 8LR,409605,422188,Calderdale,21/00839/FUL,,,,,,2021-06-14,,,,,,,,,,,2024-09-28,,,,,53.69605,-1.85601,POINT (-1.85601 53.69605)
6772,9571,12591639,2025-11-09,PEC Renewables Limited & Plymouth City Council ,Chelson Meadow - Solar Farm,Solar Photovoltaics,,,13.00,,No,,,,,,,,Ground,Planning Permission Granted,Awaiting Construction,,,"Northern Part Of Chelson Meadow, Plymouth",Devon,South West,England,PL9 7JS,250848,55209,Plymouth,22/00219/FUL,,,,,,2022-02-18,,,,,,,,,,,2025-06-24,,,,177700.00,50.37782,-4.09904,POINT (-4.09904 50.37782)
6832,9669,12529248,2025-10-07,Nether Carswell Three Limited,Nether Carswell Cottage Wind Turbine,Wind Onshore,,,4.20,,No,,,,,4.20,1,124.75,,Appeal Granted,Awaiting Construction,,,"370m S/O Nether Carswell Cottage Kingston Road, Neilston Kilmarnock",Strathclyde,Scotland,Scotland,KA3 4EQ,244922,652433,East Ayrshire,2020/0578/TP,APPEAL 0559,,,,,2020-09-25,,2024-03-04,2024-05-10,,,2025-10-05,2025-10-05,,,,2028-05-10,,,,,55.74038,-4.47175,POINT (-4.47175 55.74038)
6894,9785,12597469,2025-11-09,Lightsource SPV 175 Limited,Gammaton Moor Solar farm,Solar Photovoltaics,,,32.00,,No,AR5,,,28.57,,,,Ground,Under Construction,Under Construction,,,Webbery Barton & Cleave Farm,Devon,South West,England,EX39 4QZ,249880,125176,Torridge,1/1057/2021/FULM,,,,,,2021-09-01,,,,,,,,,,,2025-04-14,,,,632788.00,51.00633,-4.14109,POINT (-4.14109 51.00633)
6905,9806,12598362,2025-10-02,Ecotricity Limited,Heckington Fen Solar Park ,Solar Photovoltaics,,9807,500.00,,No,,,,,,,,Ground,Planning Permission Granted,Awaiting Construction,,,"Six Hundreds Farmhouse, Six Hundreds Drove East,  Heckington, Sleaford, Boston ",Lincolnshire,East Midlands,England,PE20 3QA ,520446,343644,The Planning Inspectorate - National Infrastructure,EN010123,,,,,,2023-02-15,,,,,,,,,,,2030-01-24,,,,5860000.00,52.97662,-0.20764,POINT (-0.20764 52.97662)
6906,9807,12598362,2025-10-02,Ecotricity Limited,Heckington Fen Solar Park - Battery Storage,Battery,Co-located with RE,9806,,,No,,,,,,,,,Planning Permission Granted,Awaiting Construction,,,"Six Hundreds Farmhouse, Six Hundreds Drove East,  Heckington, Sleaford, Boston ",Lincolnshire,East Midlands,England,PE20 3QA ,520446,343644,The Planning Inspectorate - National Infrastructure,EN010123,,,,,,2023-02-15,,,,,,,,,,,2030-01-24,,,,,52.97662,-0.20764,POINT (-0.20764 52.97662)
6910,9815,12598670,2025-11-09,Enso Energy Holdings A Limited/ Green Investment Group,"Gainsborough Road, Saundby - Solar Farm",Solar Photovoltaics,,,49.90,,No,AR5,,,40.00,,,,Ground,Planning Permission Granted,Awaiting Construction,,,"E/O Bumble Bee Farm, Saundby Road, Gainsborough Road, Saundby",Nottinghamshire,East Midlands,England,DN22 9ER ,478445,387990,Bassetlaw,22/00358/FUL,,,,,,2022-03-17,,,,,,,,,,,2025-07-14,,,,1547000.00,53.38294,-0.82212,POINT (-0.82212 53.38294)
6911,9816,12598670,2025-11-09,Enso Energy / Green Investment Group,"Gainsborough Road, Saundby - Battery Storage Facility",Battery,Stand-alone Storage,,,,No,,,,,,,,,Planning Permission Granted,Awaiting Construction,,,"E/O Bumble Bee Farm, Saundby Road, Gainsborough Road, Saundby",Nottinghamshire,East Midlands,England,DN22 9ER ,478445,387990,Bassetlaw,22/00358/FUL,,,,,,2022-03-17,,,,,,,,,,,2025-07-14,,,,,53.38294,-0.82212,POINT (-0.82212 53.38294)
6961,9904,12603466,2025-10-03,Canadian Solar UK (Recurrent Energy ) / Windel Energy,Mallard Pass Solar Farm,Solar Photovoltaics,,,350.00,,No,,,,,,,,Ground,Planning Permission Granted,Awaiting Construction,,,"East Coast Main Line, Essendine, Stamford",Lincolnshire,East Midlands,England,PE9 4LP,504876,311521,The Planning Inspectorate - National Infrastructure,EN010127,,,,,,2022-11-24,,,,,,,2024-12-07,,,,,,,,8250000.00,52.69123,-0.44974,POINT (-0.44974 52.69123)
6964,9912,12603138,2025-10-03,Pathfinder Clean Energy UK Dev Limited,"Wissett Solar Farm, Wissett - Solar Photovoltaic (PV) Farm ",Solar Photovoltaics,,9913,27.00,,No,,,,,,,,Ground,Planning Permission Granted,Awaiting Construction,,,"UKZ139 BC Wissett Solar Farm, Grays Lane,  Wissett  ",Suffolk,Eastern,England,IP19 0RA,637428,278503,East Suffolk,DC/22/3313/FUL,,,,,,2022-09-28,,,,,,,,,,,2028-02-17,,,,875000.00,52.35314,1.48502,POINT (1.48502 52.35314)
6965,9913,12603138,2025-10-03,Pathfinder Clean Energy UK Dev Limited,"Wissett Solar Farm, Wissett - Battery Storage",Battery,Co-located with RE,9912,10.00,,No,,,,,,,,,Planning Permission Granted,Awaiting Construction,,,"UKZ139 BC Wissett Solar Farm, Grays Lane,  Wissett  ",Suffolk,Eastern,England,IP19 0RA,637428,278503,East Suffolk,DC/22/3313/FUL,,,,,,2022-09-28,,,,,,,,,,,2028-02-17,,,,,52.35314,1.48502,POINT (1.48502 52.35314)
7089,10183,12611200,2025-10-06,Tor Energy Solar Limited,"Park Lane, Astley - Solar PV Farm ",Solar Photovoltaics,,10104,30.00,,No,,,,,,,,Ground,Planning Permission Granted,Awaiting Construction,,,"N/O Park Lane Farm, Park Lane, Astley, Nuneaton",Warwickshire,West Midlands,England,CV10 7QH,429875,289110,North Warwickshire,PAP/2021/0651,,,,,,2021-12-01,,,,,,,,,,,2025-09-30,,,,405400.00,52.49908,-1.56136,POINT (-1.56136 52.49908)
7090,10184,12611200,2025-10-06,Tor Energy Solar Limited,"Park Lane, Astley - Battery Energy Storage",Battery,Co-located with RE,10103,,,No,,,,,,,,,Planning Permission Granted,Awaiting Construction,,,"N/O Park Lane Farm, Park Lane, Astley, Nuneaton",Warwickshire,West Midlands,England,CV10 7QH,429875,289110,North Warwickshire,PAP/2021/0651,,,,,,2021-12-01,,,,,,,,,,,2025-09-30,,,,,52.49908,-1.56136,POINT (-1.56136 52.49908)
7223,10525,12615764,2025-11-03,Renewable Connections Developments Limited,Marksbury Plain - Solar Park,Solar Photovoltaics,,,15.00,,No,,,,,,,,Ground,Planning Permission Granted,Awaiting Construction,,,"Parcel 6536 Top Lane, Farmborough, Bath",Somerset,South West,England,BA2 0EG,365711,161376,Bath and North East Somerset,21/04881/FUL,,,,,,2022-01-14,,,,,,,2022-01-07,,,,2025-07-01,,,,311400.00,51.35042,-2.49375,POINT (-2.49375 51.35042)
7235,10537,12616305,2025-08-04,EnergieKontor UK Limited,Mid Moile Wind Farm,Wind Onshore,,10538,99.40,,No,,,,,6.60,15,230.00,,Planning Permission Granted,Awaiting Construction,,,"Land at Mid Moile, Mid Moile, Stranraer",Dumfries and Galloway,Scotland,Scotland,DG9 8RE,206315,569910,Scottish Government (S36),ECU00003405,,,,,,2022-02-14,,,,,,,,,,,2028-01-30,,,,,54.98601,-5.02869,POINT (-5.02869 54.98601)
7236,10538,12616305,2025-08-04,EnergieKontor UK Limited,Mid Moile Wind Farm,Battery,Co-located with RE,10537,,,No,,,,,,,,,Planning Permission Granted,Awaiting Construction,,,"Land at Mid Moile, Mid Moile, Stranraer",Dumfries and Galloway,Scotland,Scotland,DG9 8RE,206315,569910,Scottish Government (S36),ECU00003405,,,,,,2022-02-14,,,,,,,,,,,2028-01-30,,,,,54.98601,-5.02869,POINT (-5.02869 54.98601)
7253,10589,12617150,2025-08-07,Alboro Developments Limited,Cambridge Waste Management Park - Solar Farm,Solar Photovoltaics,,,,,No,,,,,,,,Ground,Planning Application Submitted,Application Submitted,,,"Cambridge Waste Management Park, Ely Road, Landbeach, Cambridge",Cambridgeshire,Eastern,England,CB25 9PG,548327,267909,South Cambridgeshire,25/02021/FUL,,,,,,2025-06-02,,,,,,,,,,,,,,,250000.00,52.2893,0.1733,POINT (0.1733 52.2893)
7317,10708,12621968,2025-11-08,Vattenfall,South Kyle Wind Farm 2,Wind Onshore,,19166,92.40,,No,,,,,8.40,11,200.00,,Planning Application Submitted,Application Submitted,,,"N/W of South Kyle wind farm, Ayr",Strathclyde,Scotland,Scotland,KA6 7QU,248060,605848,Scottish Government (S36),ECU00003429,,,,,,2025-05-02,,,,,,,,,,,,,,,,55.32316,-4.39624,POINT (-4.39624 55.32316)
7318,10711,12621997,2025-08-04,ScottishPower Renewables,Earraghail Renewable Energy Development,Solar Photovoltaics,,7873,5.00,,No,,,,,,,,Ground,Planning Permission Refused,Application Refused,,,"Land approximately 1.2km south of Tarbert and 1.1km north of Skipness, Argyll & Bute",Argyll and Bute,Scotland,Scotland,,189297,662343,Scottish Government (S36),ECU00003421,,,,,,2022-02-21,,,,,,,,,,,,,,,,55.80826,-5.36395,POINT (-5.36395 55.80826)
7319,10712,12621997,2025-08-04,ScottishPower Renewables,Earraghail Renewable Energy Development,Battery,Co-located with RE,7873,25.00,,No,,,,,,,,,Planning Permission Refused,Application Refused,,,"Land approximately 1.2km south of Tarbert and 1.1km north of Skipness, Argyll & Bute",Argyll and Bute,Scotland,Scotland,,188557,663472,Scottish Government (S36),ECU00003421,,,,,,2022-02-21,,,,,,,,,,,,,,,,55.81807,-5.37661,POINT (-5.37661 55.81807)
7418,10873,12118434,2025-12-05,Perpetuus Tidal Energy Centre,Perpetuus Tidal Project,Tidal Stream,,,30.00,,No,,,,,,,,,Planning Permission Granted,Awaiting Construction,,,"S/O St Catherine's Point, Ventnor",Isle of Wight,South East,England,PO38 2NF,449813,75346,Isle of Wight,,,,,,,,,,,,,,,,,,,,,,,50.57574,-1.29788,POINT (-1.29788 50.57574)
7424,10879,12626518,2025-11-09,HB825AXM Limited,Hawkchurch - Battery storage,Battery,Stand-alone Storage,,,,No,,,,,,,,Ground,Planning Permission Refused,Application Refused,,,"Pound Farm, Hawkchurch, Axminster",Devon,South West,England,EX13 5XF,334901,99948,East Devon,22/0508/MFUL,,,,,,2022-03-09,,,,,,,,,,,,,,,,50.79542,-2.92503,POINT (-2.92503 50.79542)
7493,10987,12629078,2025-08-07,Statkraft UK Limited,Appin Wind Farm - Wind Farm,Wind Onshore,,,,,No,,,,,,25,230.00,,Planning Application Submitted,Application Submitted,,,Appin Wind Farm,Dumfries and Galloway,Scotland,Scotland,DG13,336331,584501,Scottish Government (S36),ECU00003447,,,,,,2025-06-12,,,,,,,,,,,,,,,,55.15073,-3.00059,POINT (-3.00059 55.15073)
7509,11007,12627133,2025-11-03,Infinergy,Torrance Wind Farm Extension 2,Wind Onshore,,13591,26.40,,No,,,,,6.60,4,200.00,,Planning Permission Refused,Application Refused,,,Westcraigs Road Harthill ,Lanarkshire,Scotland,Scotland,ML7 5SL,290633,664561,North Lanarkshire,23/00256/FUL,,,,,,2023-03-29,,2025-07-03,,,,,,,,,,,,,,55.86178,-3.74897,POINT (-3.74897 55.86178)
7589,11157,12632834,2025-10-07,MVV Environment Limited,Canford Resource Park- Energy from Waste/CHP,EfW Incineration,,,30.00,,Yes,,,,,,,,,Planning Permission Refused,Application Refused,,,"Canford Resource Park, Arena Way, Magna Road, Wimborne, ",Dorset,South West,England,BH21 3BW,403542,96723,"Bournemouth, Christchurch and Poole",APP/23/00822/F,,,,,,2023-07-17,,,,,,,,,,,,,,,,50.77008,-1.95114,POINT (-1.95114 50.77008)
7672,11263,12635096,2025-12-05,Dunfermline Solar Limited (AMPYR Solar Europe),Dunfermline North - Solar Photovoltaic Array/Battery storage,Solar Photovoltaics,,11264,29.90,,No,,,,,,,,Ground,Under Construction,Under Construction,,,S/O Lochead Landfill Site ,Fife,Scotland,Scotland,KY12 0RX,308991,690614,Fife,22/01225/FULL,,,,,,2022-04-26,,,,,,,,,,,2025-08-25,2024-01-07,,,461000.00,56.0996,-3.4646,POINT (-3.4646 56.0996)
7673,11264,12635096,2025-12-05,Dunfermline Solar Limited (AMPYR Solar Europe),Dunfermline North - Solar Photovoltaic Array/Battery storage,Battery,Co-located with RE,11263,20.00,,No,,,,,,,,,Under Construction,Under Construction,,,S/O Lochead Landfill Site ,Fife,Scotland,Scotland,KY12 0RX,308991,690614,Fife,22/01225/FULL,,,,,,2022-04-26,,,,,,,,,,,2025-08-25,2024-01-07,,,,56.0996,-3.4646,POINT (-3.4646 56.0996)
7701,11312,12507874,2025-11-04,Infinergy / Boralex,Limekiln Wind Farm (Extension) - Battery,Battery,Co-located with RE,7708,5.00,,No,,,,,,,,,Operational,Operational,,,"Broubster Estate, Acheveilan North Estate and Limekiln Estate, southeast of Reay, Caithness",Highland,Scotland,Scotland,,300298,961309,Scottish Government (S36),ECU00002070,,,,,,2020-05-14,,,,,,,2022-06-05,,,,2027-05-06,,2025-01-04,,,58.52844,-3.71381,POINT (-3.71381 58.52844)
7864,11574,12645156,2025-08-07,Harmony Energy Storage Limited,Stranglands Lane - Battery energy storage,Battery,Stand-alone Storage,,,,No,,,,,,,,,Planning Permission Granted,Awaiting Construction,,,Holmfield Lane Stranglands Lane Knottingley,West Yorkshire,Yorkshire and Humber,England,WF11 8TB,449978,423958,Wakefield,24/00394/FUL,,,,,,2024-03-11,,,,,,,,,,,2028-05-30,,,,,53.70966,-1.24431,POINT (-1.24431 53.70966)
7914,11652,12647998,2025-10-01,Wilson Renewables IV Llp,"Hawkwood Wind Farm, Kype Highway - Wind turbines",Wind Onshore,,,33.00,,No,,,,,6.60,5,200.00,,Planning Application Submitted,Application Submitted,,,Hawkwood Wind Farm Kype Highway Strathaven ,Strathclyde,Scotland,Scotland,ML10 6PQ,271672,641796,South Lanarkshire,P/24/1420,,,,,,2024-11-22,,,,,,,,,,,,,,,,55.65269,-4.04101,POINT (-4.04101 55.65269)
7944,11698,12547508,2025-11-06,North Farm Mannington Solar Limited / BayWa r.e.,"North Farm, Horton - Solar Farm",Solar Photovoltaics,,,19.00,,No,,,,,,,,Ground,Planning Permission Granted,Awaiting Construction,,7912,North Farm Horton ,Dorset,South West,England,BH21 7HL,403221,108856,Dorset,P/FUL/2023/02829,,,,,,2023-05-16,,,,,,,2025-07-05,,,,2030-05-07,,,,297700.00,50.87919,-1.95559,POINT (-1.95559 50.87919)
8024,11832,12652244,2025-12-05,Harmony HS (JB) Limited,"Hewitts Avenue, New Waltham - Battery Storage",Battery,Stand-alone Storage,,49.90,,No,,,,,,,,,Planning Permission Granted,Awaiting Construction,,,Adjacent To YEB Sub Station Hewitts Avenue New Waltham ,Lincolnshire,Yorkshire and Humber,England,DN36 4RJ,529429,406383,North East Lincolnshire,DM/0158/24/FUL,,,,,,2024-02-22,,,,,,,,,,,2030-03-28,,,,,53.53815,-0.04845,POINT (-0.04845 53.53815)
8028,11839,12652944,2025-10-06,JBM Solar Projects Limited,"Pool Farm, Mill Lane, Stratton - Solar Farm",Solar Photovoltaics,,13032,44.00,,No,,,,,,,,Ground,Appeal Granted,Awaiting Construction,,,Pool Farm Mill Lane Stratton Audley,Oxfordshire,South East,England,OX27 9BJ,461004,226127,Cherwell,22/03873/F,APP/C3105/W/24/3353069,,,,,2023-01-03,,,2025-02-20,,,,,,,,2028-05-21,,,,679000.00,51.93032,-1.11419,POINT (-1.11419 51.93032)
8037,11854,12653214,2025-08-08,European Energy A/S / Locogen Limited,Teindland Wind Farm,Wind Onshore,,19173,,,No,,,,,,12,230.00,,Planning Application Submitted,Application Submitted,,,"Teindland Wood, Teindland, Elgin",Grampian,Scotland,Scotland,AB38 7AP,327796,849143,Scottish Government (S36),ECU00004556,,,,,,2025-07-09,,,,,,,,,,,,,,,,57.52666,-3.20732,POINT (-3.20732 57.52666)
8162,12024,12658292,2025-08-04,Resources Unlimited LLP,"Saturland Farm, Salterland Road - Battery Energy Storage System",Battery,Stand-alone Storage,,60.80,,No,,,,,,,,,Planning Permission Granted,Awaiting Construction,,,"Saturland Farm, 168 Salterland Road, Glasgow",Strathclyde,Scotland,Scotland,G78 1TF,251610,659747,Scottish Government (S36),ECU00004590,,,,,,2023-11-17,,,,,,,,,,,2027-12-19,,,,,55.80813,-4.3693,POINT (-4.3693 55.80813)
8231,12123,12660152,2025-11-07,Eden Renewables,"Cressing Farm, Witham Road - Solar Farm",Solar Photovoltaics,,,13.80,,No,,,,,,,,Ground,Planning Permission Granted,Awaiting Construction,,,Cressing Farm Witham Road Cressing ,Essex,Eastern,England,CM77 8PD,579881,218580,Braintree,24/02673/FUL,,,,,,2025-01-07,,,,,,,2025-06-06,,,,2028-06-06,,,,408400.00,51.83685,0.60949,POINT (0.60949 51.83685)
8252,12152,12660357,2025-11-02,SUEZ Recycling & Recovery UK Limited Head Office,"Suezlower, Eccleshill Road - Anaerobic Digestion Facility",Anaerobic Digestion,,,,,No,,,,,,,,,Planning Permission Granted,Awaiting Construction,,,"Suezlower, Eccleshill Road, Darwen",Lancashire,North West,England,BB3 0RP,369333,424005,Blackburn with Darwen,10/22/1006,,,,,,2022-11-04,,,,,,,2023-03-03,,,,2026-03-03,,,,,53.71156,-2.4661,POINT (-2.4661 53.71156)
8281,12195,12662429,2025-11-09,Bluefield Renewable Developments Limited,"Bicton Industrial Park, Stow Road - Solar Farm",Solar Photovoltaics,,,8.00,,No,,,,,,,,Ground,Planning Permission Granted,Awaiting Construction,,,West Of Bicton Industrial Park Stow Road Kimbolton,Cambridgeshire,Eastern,England,PE28 0TR,509927,269360,Huntingdonshire,22/01945/FUL,,,,,,2022-09-12,,,,,,,2023-01-12,,,,2028-12-01,,,,146000.00,52.31136,-0.38895,POINT (-0.38895 52.31136)
8331,12273,12664904,2025-10-07,Locogen,Loch Fergus Farm - Solar Farm ,Solar Photovoltaics,,12274,40.00,,No,,,,,,,,Ground,Under Construction,Under Construction,,,Loch Fergus Farm,Ayrshire,Scotland,Scotland,KA6 6ER,239106,618421,Scottish Government (S36),ECU00004855,,,,,,2023-07-03,,,,,,,,,,,2027-10-22,2025-01-06,,,582000.00,55.43317,-4.54445,POINT (-4.54445 55.43317)
8332,12274,12664904,2025-10-07,Locogen,Loch Fergus Farm - Energy Storage System,Battery,Co-located with RE,12273,45.00,,No,,,,,,,,,Under Construction,Under Construction,,,Loch Fergus Farm,Ayrshire,Scotland,Scotland,KA6 6ER,239106,618421,Scottish Government (S36),ECU00004855,,,,,,2023-07-03,,,,,,,,,,,2027-10-22,2025-01-06,,,,55.43317,-4.54445,POINT (-4.54445 55.43317)
8398,12383,12666151,2025-10-01,Anesco,Blackpark House -  Battery Storage,Battery,Stand-alone Storage,,30.00,,No,,,,,,,,,Planning Application Submitted,Application Submitted,,,South Of Blackpark House Nairn,Highland,Scotland,Scotland,IV12 5HY,291560,854364,Highland,24/05019/FUL,,,,,,2024-12-16,,,,,,,,,,,,,,,,57.5663,-3.81444,POINT (-3.81444 57.5663)
8444,12443,12667760,2025-10-02,Lightrock Power,Libra Energy Stability Project  - Battery Energy Storage,Battery,Stand-alone Storage,,100.00,,No,,,,,,,,,Planning Permission Granted,Awaiting Construction,,,"Coombe Farm, Bob Lane, Twineham, Haywards Heath",West Sussex,South East,England,RH17 5NH,524764,120815,Mid Sussex,DM/23/1184,,,,,,2023-05-03,,,,,,,,,,,2032-01-31,,,,,50.97324,-0.22435,POINT (-0.22435 50.97324)
8503,12521,12669293,2025-08-07,Conrad Energy,"Camp Road, West Coker - Solar PV Panels ",Solar Photovoltaics,,12521,15.23,,No,,,,,,,,Ground,Planning Permission Granted,Awaiting Construction,,,"Camp Road, West Coker, Yeovil",Somerset,South West,England,BA22 8XD,351991,114205,Somerset,"23/02111/FUL
",,,,,,2023-08-15,,,,,,,,,,,2027-01-31,,,,184100.00,50.92529,-2.68444,POINT (-2.68444 50.92529)
8504,12522,12669293,2025-08-07,Conrad Energy,"Camp Road, West Coker - Battery Energy Storage",Battery,Co-located with RE,12522,,,No,,,,,,,,,Planning Permission Granted,Awaiting Construction,,,"Camp Road, West Coker, Yeovil",Somerset,South West,England,BA22 8XD,351991,114205,Somerset,"23/02111/FUL
",,,,,,2023-08-15,,,,,,,,,,,2027-01-31,,,,,50.92529,-2.68444,POINT (-2.68444 50.92529)
8535,12597,12670699,2025-11-09,Novus Renewable Services Limited,"Tolldish Hall Farm, Parrotts Grove - Solar Photovoltaic Panels",Solar Photovoltaics,,,25.00,,No,AR6,,,25.00,,,,Ground,Under Construction,Under Construction,,,"Tolldish Hall Farm  Parrotts Grove, Coventry",West Midlands,West Midlands,England,CV2 1NR,437282,284627,Rugby,39235,,,,,,2022-10-17,,,,,,,,,,,,2024-01-04,,,126500.00,52.45833,-1.45275,POINT (-1.45275 52.45833)
8544,12607,12670878,2025-09-05,Brockwell Storage & Solar Limited,Scawby Road - Solar Array,Solar Photovoltaics,,12608,49.90,,No,,,,,,,,Ground,Planning Application Submitted,Application Submitted,,,"E/O Scawby Road, Btw Brigg, Scawby And Hibaldstow, Brigg",Lincolnshire,Yorkshire and Humber,England,DN20 9JN,499226,407017,North Lincolnshire,PA/2025/292,,,,,,2025-04-10,,,,,,,,,,,,,,,850000.00,53.55042,-0.5038,POINT (-0.5038 53.55042)
8545,12608,12670878,2025-09-05,Brockwell Storage & Solar Limited,Scawby Road - Solar Array,Battery,Co-located with RE,12607,30.00,,No,,,,,,,,,Planning Application Submitted,Application Submitted,,,"E/O Scawby Road, Btw Brigg, Scawby And Hibaldstow, Brigg",Lincolnshire,Yorkshire and Humber,England,DN20 9JN,499226,407017,North Lincolnshire,PA/2025/292,,,,,,2025-04-10,,,,,,,,,,,,,,,,53.55042,-0.5038,POINT (-0.5038 53.55042)
8551,12617,12670244,2025-12-05,Manby BGE Limited,"Manby Airfield, Manby Park - Anaerobic Digestor",Anaerobic Digestion,,,,,No,,,,,,,,,Planning Permission Granted,Awaiting Construction,,,"Manby Airfield, Manby Park, Manby, Louth",Lincolnshire,East Midlands,England,LN11 8UZ,539166,386893,East Lindsey,PL/0037/23,,,,,,2023-05-19,,,,,,,,,,,2028-03-28,,,,,53.3606,0.08976,POINT (0.08976 53.3606)
8569,12651,12727669,2025-11-02,Statera Energy,East Chickerell Court Farm - Battery Energy Storage System,Battery,Stand-alone Storage,,400.00,,No,,,,,,,,,Planning Permission Granted,Awaiting Construction,,,"East Chickerell Court Farm, Chickerell, Weymouth",Dorset,South West,England,DT3 4BG,365414,81099,Dorset,P/FUL/2023/04657,,,,,,2023-08-14,,,,,,,,,,,2030-01-27,,,,,50.62856,-2.49035,POINT (-2.49035 50.62856)
8616,12727,12673439,2025-08-04,Vattenfall,Ourack,Battery,Co-located with RE,5949,50.00,No,,,,,,,,,,Planning Permission Granted,Awaiting Construction,,,6km north of Granton-on-Spey,Highland,Scotland,Scotland,,305000,838876,Scottish Government (S36),ECU00001999,,,,,,2022-10-18,,,,,,,,,,,,,,,,57.43026,-3.58383,POINT (-3.58383 57.43026)
8638,12760,12630650,2025-11-09,Renewable Energy Systems (RES),Bloch Wind Farm & Battery Storage (Solway Bank Extension),Battery,Co-located with RE,10999,45.00,,No,,,,,,,,,Planning Application Submitted,Application Submitted,,,"Solwaybank, Allfornought Hill, Langholm",Dumfries and Galloway,Scotland,Scotland,DG13,331955,580845,Scottish Government (S36),ECU00003463,,,,,,2022-11-02,,,,,,,,,,,,,,,,55.1173,-3.06837,POINT (-3.06837 55.1173)
8650,12776,12674912,2025-11-09,Boom Developments Limited,"New Hall Farm, New Hall Lane - Solar Farm",Solar Photovoltaics,,,22.40,,No,,,,,,,,Ground,Appeal Granted,Awaiting Construction,,,New Hall Farm New Hall Lane Overton ,West Yorkshire,Yorkshire and Humber,England,WF4 4RP,425872,415901,Wakefield,23/01113/FUL,APP/X4725/W/24/33540,,,,,2023-10-05,,,2025-01-14,,,2025-11-06,2025-11-06,,,,2028-06-11,,,,720000.00,53.63899,-1.61017,POINT (-1.61017 53.63899)
8736,12900,12677270,2025-10-03,Muirhall Energy Limited,"Elvanfoot, Leadhills Road - Battery Storage",Battery,Stand-alone Storage,,9.80,,No,,,,,,,,,Planning permission granted,Awaiting Construction,,,335M West Of 52 Dumfries Road Leadhills Road Elvanfoot ,Strathclyde,Scotland,Scotland,ML12 6TE,294987,617360,South Lanarkshire,P/23/0927,,,,,,2023-08-16,,,,,,,2025-10-02,,,,,,,,,55.43882,-3.66139,POINT (-3.66139 55.43882)
8843,13029,12681301,2025-11-02,A M Duguid & Son (BioteCH4),"Hemswell Biogas, Hemswell Cliff Industrial Estate - Anaerobic Digestion",Anaerobic Digestion,,,6.00,,Yes,,,,,,,,,Planning Permission Granted,Awaiting Construction,,,"west of Hemswell Biogas Ltd, Hemswell Cliff Industrial Estate, Hemswell Cliff",Lincolnshire,East Midlands,England,DN21 5TU,494731,390426,West Lindsey,PL/0100/22,,,,,,2022-12-20,,,,,,,2024-04-06,,,,2027-06-04,,,,,53.40217,-0.57662,POINT (-0.57662 53.40217)
8846,13032,12652944,2025-10-06,JBM Solar Projects Limited,"Pool Farm, Mill Lane, Stratton - Solar Farm",Battery,Co-located with RE,11839,,,No,,,,,,,,Ground,Appeal Granted,Awaiting Construction,,,Pool Farm Mill Lane Stratton Audley,Oxfordshire,South East,England,OX27 9BJ,461004,226127,Cherwell,22/03873/F,APP/C3105/W/24/3353069,,,,,2023-01-03,,,2025-02-20,,,,,,,,2028-05-21,,,,,51.93032,-1.11419,POINT (-1.11419 51.93032)
9062,13327,12692065,2025-11-02,Staples Brothers Limited,"Staples Vegetables Limited, Station Farm - Anaerobic Digestion Plant",Anaerobic Digestion,,,,,No,,,,,,,,,Planning Permission Granted,Awaiting Construction,,,"Staples Vegetables Limited, Station Farm, Station Road, Sibsey, Boston",Lincolnshire,East Midlands,England,PE22 0SE,536296,350521,East Lindsey,PL/0015/23,,,,,,2023-03-14,,,,,,,,,,,2026-06-13,,,,,53.03461,0.03116,POINT (0.03116 53.03461)
9066,13331,12692073,2025-11-09,Novus Renewable Services Limited,Oaks Farm - Solar Farm,Solar Photovoltaics,,,37.00,,No,,,,,,,,Ground,Planning Application Submitted,Application Submitted,,,"Oaks Farm, Milton Keynes",Buckinghamshire,South East,England,MK17 0NF,479115,236361,Buckinghamshire,25/02284/APP,,,,,,2025-07-25,,,,,,,,,,,,,,,,52.02004,-0.84848,POINT (-0.84848 52.02004)
9085,13368,12519951,2025-11-06,Intelligent Land Investments Group,"Learielaw Farm, Learielaw -  Battery Energy Storage",Battery,Stand-alone Storage,,100.00,,No,,,,,,,,,Planning Permission Granted,Awaiting Construction,,7970,"Learielaw Farm, Learielaw, Broxburn",Lothian,Scotland,Scotland,EH52 5PG,308656,670720,Scottish Government (S36),ECU00004983,,,,,,2023-11-20,,,,,,,,,,,2028-05-19,,,,,55.92086,-3.46321,POINT (-3.46321 55.92086)
9088,13371,12692917,2025-10-03,Tamworth Solar Limited,Amington Hall Farm - Solar Farm,Solar Photovoltaics,,,30.00,,No,AR6,,,30.00,,,,Ground,Planning Permission Granted,Awaiting Construction,,,east of Amington Hall Farm ,Staffordshire,West Midlands,England,B79 0ED,423957,304747,Tamworth,25/00095/PA52,,,,,,2023-03-02,,,,,,,,,,,,,,,,52.63994,-1.6474,POINT (-1.6474 52.63994)
9114,13404,12693595,2025-08-04,Banks Renewables,"Pond Industrial Park, Whitburn Road - Pond Battery Storage",Battery,Stand-alone Storage,,200.00,,No,,,,,,,,,Planning Permission Granted,Awaiting Construction,,,"Pond Industrial Park, Whitburn Road, Bathgate",West Lothian,Scotland,Scotland,EH48 2HR,296422,667199,Scottish Government (S36),ECU00004765,,,,,,2024-05-13,,,,,,,,,,,2030-03-24,,,,,55.88675,-3.65753,POINT (-3.65753 55.88675)
9216,13549,12697491,2025-10-03,Novus Renewable Services,"Lower Farm, Drointon Lane - Solar farm & Battery Energy Storage",Solar Photovoltaics,,13550,49.90,,No,,,,,,,,Ground,Appeal Granted,Awaiting Construction,,,Lower Farm Drointon Lane Grindley,Staffordshire,West Midlands,England,ST18 0LX,402591,326912,Stafford,23/36938/FUL,APP/Y3425/W/24/3351763,,,,,2023-03-17,,2024-02-08,2024-12-23,,,,,,,,,,,,436000.00,52.83971,-1.96298,POINT (-1.96298 52.83971)
9217,13550,12697491,2025-10-03,Novus Renewable Services,"Lower Farm, Drointon Lane - Solar farm & Battery Energy Storage",Battery,Co-located with RE,13549,30.00,,No,,,,,,,,,Appeal Granted,Awaiting Construction,,,Lower Farm Drointon Lane Grindley,Staffordshire,West Midlands,England,ST18 0LX,402591,326912,Stafford,23/36938/FUL,APP/Y3425/W/24/3351763,,,,,2023-03-17,,2024-02-08,2024-12-23,,,,,,,,,,,,,52.83971,-1.96298,POINT (-1.96298 52.83971)
9250,13591,12627133,2025-11-03,Infinergy,Torrance Wind Farm Extension 2,Battery,Co-located with RE,11007,,,No,,,,,,,,,Planning Permission Refused,Application Refused,,,Westcraigs Road Harthill ,Lanarkshire,Scotland,Scotland,ML7 5SL,290633,664561,North Lanarkshire,23/00256/FUL,,,,,,2023-03-29,,2025-07-03,,,,,,,,,,,,,,55.86178,-3.74897,POINT (-3.74897 55.86178)
9275,13625,12699146,2025-11-08,Octopus Energy / Wind 2 Limited,Windburn Wind Farm,Wind Onshore,,13626,65.00,,No,,,,,5.00,13,149.90,,Planning Application Submitted,Application Submitted,,,"Windburn Wind Farm, Hillfoots Business Village, Alva",Clackmannanshire,Scotland,Scotland,FK12 5DQ,289096,696739,Scottish Government (S36),ECU00004782,,,,,,2025-06-05,,,,,,,,,,,,,,,,56.1504,-3.78681,POINT (-3.78681 56.1504)
9276,13626,12699146,2025-11-08,Octopus Energy / Wind 2 Limited,Windburn Wind Farm,Battery,Co-located with RE,13625,35.00,,No,,,,,,,,,Planning Application Submitted,Application Submitted,,,"Windburn Wind Farm, Hillfoots Business Village, Alva",Clackmannanshire,Scotland,Scotland,FK12 5DQ,289096,696739,Scottish Government (S36),ECU00004782,,,,,,2025-06-05,,,,,,,,,,,,,,,,56.1504,-3.78681,POINT (-3.78681 56.1504)
9286,13636,12699139,2025-10-03,Push Generation & Supply Limited,"Rolleston Park Farm, Lodge Hill - Solar Farm",Solar Photovoltaics,,,12.00,,No,,,,,,,,Ground,Planning Permission Granted,Awaiting Construction,,,Rolleston Park Farm Lodge Hill Tutbury,Staffordshire,West Midlands,England,DE13 9HQ,421288,326961,East Staffordshire,P/2023/00296,,,,,,2023-04-03,,,,,,,2023-03-11,,,,2026-11-03,,,,190600.00,52.83974,-1.68541,POINT (-1.68541 52.83974)
9334,13694,12700867,2025-10-02,Exagen,Holly Lane Energy Park - Solar Farm & Battery Storage,Solar Photovoltaics, ,13695,28.00, ,No,, , , , , , ,Ground,Appeal Granted,Awaiting Construction,, ,Holly Lane Energy Park,West Midlands,West Midlands,England,B37 7AN,416710,285876,Solihull,PL/2023/01952/PPFL ,AP/2024/00027/REF, , , , ,2023-09-18,,,2024-07-01,,,,,,,,2030-01-30,,,,474000.00,52.47057,-1.75544,POINT (-1.75544 52.47057)
9335,13695,12701223,2025-10-02,Exagen,Holly Lane Energy Park - Solar Farm & Battery Storage,Battery,Co-located with RE,13694,75.00, ,No,, , , , , , , ,Appeal Granted,Awaiting Construction,, ,Holly Lane Energy Park,West Midlands,West Midlands,England,B37 7AN,426019,274295,Warwick,W/23/1358,APP/T3725/W/24/3347315, , , , ,2023-09-14,,,2024-07-01,,,,,,,,2030-01-30,,,,,52.36609,-1.6193,POINT (-1.6193 52.36609)
9547,13987,12710750,2025-11-09,Aura Power Storage Solutions,"Marsh Lane Solar Farm,  Lion Road - Solar Farm",Solar Photovoltaics,,,30.00,,No,,,,,,,,Ground,Planning Permission Granted,Awaiting Construction,,,"Marsh Lane Solar Farm At Land North Of Lion Road Palgrave, Diss",Norfolk,Eastern,England,IP22 4GT,613011,279725,South Norfolk,DC/23/05426,,,,,,2023-12-04,,,,,,,,,,,2028-08-13,,,,576000.00,52.37413,1.12786,POINT (1.12786 52.37413)
9562,14006,12711777,2025-10-07,Scottish & Southern Energy Renewables,Sloy Hydroelectric Power Station - Pumped Hydro Conversion,Pumped Storage Hydroelectricity,      ,      ,100.00,      ,No,,      ,      ,      ,      ,      ,      ,      ,Planning Application Submitted,Application Submitted,,      ,"Lochview House, Shore Road, Garelochhead, Helensburgh",Argyll and Bute ,Scotland,Scotland,G84 0AS,223748,691167,Scottish Government (S36),ECU00006088,      ,      ,      ,      ,      ,2025-01-21,,,,,,,,,,,,,,,,56.08073,-4.83385,POINT (-4.83385 56.08073)
9563,14009,12702820,2025-10-03,Metropolitan Housing Trust / Barratt Homes,"West Hendon Estate, Plots A, C & G - 350 Apartments & Commercial Units",Solar Photovoltaics,,,0.23,,Yes,,,,,,,,Roof,Planning Permission Granted,Awaiting Construction,,,"West Hendon Estate, West Hendon",London,London,England,NW9 7DW,521812,188229,Barnet,23/1802/FUL,,,,,,2023-04-25,,,,,,,,,,,2027-08-18,,,,,51.57977,-0.24342,POINT (-0.24342 51.57977)
9593,14042,12713382,2025-11-09,Opdenergy UK 8 Limited,Stracathro - Battery Energy Storage System,Battery,Stand-alone Storage,,249.00,,No,,,,,,,,,Planning Permission Granted,Awaiting Construction,,,"Adj Addicate Wood and Huntly Wood & 1.6 km S/O Stracathro Services, Brechin",Angus,Scotland,Scotland,DD9 7PU,362552,763494,Scottish Government (S36),ECU00004807,,,,,,2025-01-09,,,,,,,,,,,,,,,,56.76153,-2.61414,POINT (-2.61414 56.76153)
9594,14045,12701162,2025-11-02,JM Stratton & Company,Codford Solar Farm Phase 4,Solar Photovoltaics,,14046,18.00,,No,,,,,,,,Ground,Planning Permission Granted,Awaiting Construction,,,"East Farm, Codford St Mary, Warminster",Wiltshire,South West,England,BA12 0LN,	399419,143812,Wiltshire,PL/2023/03024,,,,,,2023-05-19,,,,,,,,,,,2027-07-17,,,,285000.00,51.19353,-2.0097,POINT (-2.0097 51.19353)
9595,14046,12701162,2025-11-02,JM Stratton & Company,Codford Solar Farm Phase 4,Battery,Co-located with RE,14045,,,No,,,,,,,,,Planning Permission Granted,Awaiting Construction,,,"East Farm, Codford St Mary, Warminster",Wiltshire,South West,England,BA12 0LN,	399420,143813,Wiltshire,PL/2023/03025,,,,,,2023-05-19,,,,,,,,,,,2027-07-17,,,,,51.19354,-2.00968,POINT (-2.00968 51.19354)
9607,14058,12713370,2025-08-04,Intergen,Eccles II Substation - Battery Energy Storage System,Battery,Stand-alone Storage,,500.00,,No,,,,,,,,,Planning Permission Granted,Awaiting Construction,,,"W/O Eccles Substation, approximately 2.3 km S/O Leitholm",Scottish Borders ,Scotland,Scotland,TD12 4JA,379573,642119,Scottish Government (S36),ECU00004804,,,,,,2023-05-02,,,,,,,,,,,2027-12-16,,,,,55.67214,-2.32634,POINT (-2.32634 55.67214)
9667,14135,12714194,2025-11-09,Centrica Plc ,"Piramal Healthcare, Whalton Road - Solar Farm",Solar Photovoltaics,,,4.30,,No,,,,,,,,Ground,Planning Permission Granted,Awaiting Construction,,,Piramal Healthcare Uk Ltd Piramal Factory Whalton Road,Northumberland,North East,England,NE61 3YA,418328,584182,Northumberland,23/03856/RENE,,,,,,2023-11-03,,,,,,,,,,,2027-06-25,,,,57000.00,55.15164,-1.71395,POINT (-1.71395 55.15164)
9673,14145,12705995,2025-10-03,Botley Energy Reserve 2 Limited,"Ash Farm, Titchfield Lane - Battery Storage",Battery,Stand-alone Storage,,15.00,,No,,,,,,,,,Planning Permission Granted,Awaiting Construction,,,"Titchfield Lane, Whiteley, Fareham",Hampshire,South East,England,PO15 6DY,455138,109927,Winchester,23/01106/FUL,,,,,,2023-05-04,,,,,,,,,,,2028-02-19,,,,,50.88621,-1.21752,POINT (-1.21752 50.88621)
9692,14171,12717265,2025-12-05,Exagen, Swallett Energy Park,Solar Photovoltaics,,,23.00,,No,,,,,,,,Ground,Planning Permission Refused,Application Refused,,,"W/O Lyneham Substation, S/O The M4 & N/O The Great Western Mainline Railway Line, W/O Dauntsey Lock, Chippenham",Wiltshire,South West,England,SN15 4DF,398673,180281,Wiltshire,PL/2023/10077,,,,,,2023-12-05,,,,,,,,,,,,,,,464000.00,51.52144,-2.02052,POINT (-2.02052 51.52144)
9769,14279,12718278,2025-08-08,Noventum Power Limited,Longbreach Solar Farm,Solar Photovoltaics,,,49.90,,No,,,,,,,,Ground,Planning Application Submitted,Application Submitted,,,Wings Farm Marston Road Granborough,Buckinghamshire,South East,England,MK18 3JX,476658,224325,Buckinghamshire,25/01865/APP,,,,,,2025-06-17,,,,,,,,,,,,,,,641000.00,51.91219,-0.88696,POINT (-0.88696 51.91219)
9773,14287,12547507,2025-11-06,BayWa r.e. UKLimited / Grüne Energien Projekt UG,"Woodlands Manor Farm, Horton - Solar Farm",Solar Photovoltaics,,,30.00,,No,,,,,,,,Ground,Planning Permission Granted,Awaiting Construction,,,"Woodlands Manor Farm, Horton, Wimborne",Dorset,South West,England,BH21 8ND,404672,108298,Dorset,P/FUL/2023/03415,,,,,,2023-06-15,,,,,,,2025-07-05,,,,2030-05-07,,,,609100.00,50.87416,-1.93497,POINT (-1.93497 50.87416)
9805,14336,12719026,2025-08-07,Canadian Solar / Novergy,Home Farm,Battery,Co-located with RE,7557,,,No,,,,,,,,,Planning Permission Granted,Awaiting Construction,,,Land at (OS 9033 4090) Bourne Road Defford,Worcestershire,West Midlands,England,WR8 0QD,389089,239972,Wychavon,W/23/01011/FUL,,,,,,2023-06-27,,,,,,,,,,,2028-06-16,,,,,52.05802,-2.16055,POINT (-2.16055 52.05802)
9822,14356,12721164,2025-08-07,Mccarthy Contractors (Bridgend) Limited,"Whitehall Farm, Llanharry Road - Solar PV Panels",Solar Photovoltaics,,,1.30,,No,,,,,,,,Ground,Under Construction,Under Construction,,,Whitehall Farm Llanharry Road Llanharan,Mid Glamorgan,Wales,Wales,CF72 9LW,300409,181684,Rhondda Cynon Taf,24/0630/FUL,,,,,,2024-07-09,,,,,,,,,,,,2025-01-04,,,26600.00,51.52526,-3.43694,POINT (-3.43694 51.52526)
9925,14506,12723485,2025-08-05,Bluefield Renewable Developments Limited,"Gilbertfield Farm, Gilbertfield Road - Battery Storage Facility",Battery,Stand-alone Storage,,40.00,,No,,,,,,,,,Planning Application Submitted,Application Submitted,,,Land 110M Southeast Of Gilbertfield Farm Gilbertfield Road ,Strathclyde,Scotland,Scotland,G72 8YW,265283,658877,South Lanarkshire,P/25/0367,,,,,,2025-04-04,,,,,,,,,,,,,,,,55.80433,-4.15089,POINT (-4.15089 55.80433)
9938,14524,12723199,2025-08-07,Noventum Power Limited,"Hatherton Lodge Farm, Hunsterson Road - Solar Farm",Solar Photovoltaics,,,12.50,,No,,,,,,,,Ground,Planning Permission Granted,Awaiting Construction,,,"Hatherton Lodge Farm,Hunsterson Road, Hatherton",Cheshire,North West,England,CW5 7RA,369151,347418,Cheshire East,24/5074/FUL,,,,,,2024-12-16,,,,,,,,,,,2028-06-19,,,,,53.02316,-2.46136,POINT (-2.46136 53.02316)
9940,14529,12726199,2025-08-07,Greenfield Energy Developments Limited,"Blounts Court Farm, Potterne - Solar Panels",Solar Photovoltaics,,,15.00,,No,,,,,,,,Ground,Planning Permission Refused,Application Refused,,,"E/O Blounts Court Farm,  Potterne, Devizes",Wiltshire,South West,England,SN10 5PH,399626,158376,Wiltshire,PL/2024/04926,,,,,,2024-06-11,,,,,,,,,,,,,,,283500.00,51.32449,-2.00675,POINT (-2.00675 51.32449)
9953,14543,12547793,2025-08-04,Sirius EcoDev Limited,Tealing Solar Energy Park - Phase 2,Solar Photovoltaics,,11097,110.00,,No,,,,,,,,Ground,Planning Permission Granted,Awaiting Construction,14543,12994,"N/O Leyshade, Tealing, Dundee",Tayside,Scotland,Scotland,DD4 0PX,342839,737970,Scottish Government (S36),ECU00004882,,,,,,2023-11-17,,,,,,,,,,,2028-03-25,,,,,56.53026,-2.93087,POINT (-2.93087 56.53026)
9954,14546,12727589,2025-08-07, E Power Limited,Back Fell Wind Farm,Wind Onshore,,14547,92.40,,No,,,,,6.60,14,200.00,,Planning Application Submitted,Application Submitted,,,"900m south of Straiton, Maybole",South Ayrshire,Scotland,Scotland,KA19,,,Scottish Government (S36),ECU00004830,,,,,,2025-05-19,,,,,,,,,,,,,,,,inf,inf,POINT (Infinity Infinity)
9955,14547,12727589,2025-08-07, E Power Limited,Back Fell Wind Farm,Battery,Co-located with RE,14546,40.00,,No,,,,,,,,,Planning Application Submitted,Application Submitted,,,"900m south of Straiton, Maybole",South Ayrshire,Scotland,Scotland,KA19,,,Scottish Government (S36),ECU00004830,,,,,,2025-05-19,,,,,,,,,,,,,,,,inf,inf,POINT (Infinity Infinity)
10080,14708,12370000,2025-10-09,Community Windpower,Sanquhar 2 Community Wind Farm,Battery,Co-located with RE,6629,,,No,,,,,,,,,Under Construction,Under Construction,,4294,"Sanquhar II Wind Farm 7.5km So, New Cumnock, Kirkconnel, Sanquhar,",Dumfries and Galloway,Scotland,Scotland,DG4 6AA,268554,603493,Scottish Government (S36),ECU00001801,,,,,,2019-03-21,,,,,,,,,,,2028-08-31,2025-01-05,,,,55.30792,-4.07239,POINT (-4.07239 55.30792)
10092,14724,12730485,2025-08-04,H2 Energy Ecosystem UK,Puma Energy Site - Hydrogen Generation Facility,Hydrogen,,,20.00,,No,,,,,,,,,Under Construction,Under Construction,,,Vacant land to the South of the existing buildings at the North-West of Puma Energy Site,Dyfed,Wales,Wales,SA73 3PW,188692,209070,Pembrokeshire,23/0448/PA,,,,,,2023-08-15,,,,,,,2023-06-10,,,,2028-10-06,2025-01-03,,,,51.74039,-5.062,POINT (-5.062 51.74039)
10119,14764,12734584,2025-08-07,Wind2 / Octopus Energy ,Lairdmannoch Energy Park,Wind Onshore,,14765 & 14766,60.00,,No,,,,,6.60,9,180.00,,Planning Application Submitted,Application Submitted,,,7km north east of Gatehouse of Fleet,Dumfries and Galloway,Scotland,Scotland,DG7,265888,561809,Scottish Government (S36),ECU00004900,,,,,,2025-05-27,,,,,,,,,,,,,,,,54.93288,-4.09466,POINT (-4.09466 54.93288)
10120,14765,12734584,2025-08-07,Wind2 / Octopus Energy ,Lairdmannoch Energy Park,Solar Photovoltaics,Co-located with RE,14764 & 14766,20.00,,No,,,,,,,,Ground,Planning Application Submitted,Application Submitted,,,7km north east of Gatehouse of Fleet,Dumfries and Galloway,Scotland,Scotland,DG7,265888,561809,Scottish Government (S36),ECU00004900,,,,,,2025-05-27,,,,,,,,,,,,,,,,54.93288,-4.09466,POINT (-4.09466 54.93288)
10121,14766,12734584,2025-08-07,Wind2 / Octopus Energy ,Lairdmannoch Energy Park,Battery,Co-located with RE,14764 & 14765,20.00,,No,,,,,,,,,Planning Application Submitted,Application Submitted,,,7km north east of Gatehouse of Fleet,Dumfries and Galloway,Scotland,Scotland,DG7,265888,561809,Scottish Government (S36),ECU00004900,,,,,,2025-05-27,,,,,,,,,,,,,,,,54.93288,-4.09466,POINT (-4.09466 54.93288)
10126,14773,12734688,2025-10-01,Cenin Renewables Limited,Mynydd Maen Solar Farm (Cil-Lonydd),Solar Photovoltaics,,17724,35.00,,No,,,,,,,,Ground,Planning Application Submitted,Application Submitted,,,"Cil-Onnydd Farm, Newbridge, Caerphilly",Mid Glamorgan,Wales,Wales,NP11,,,Welsh Government (NSIP),DNS CAS-02446-R8X8W2,,,,,,2024-07-19,,,,,,,,,,,,,,,286000.00,inf,inf,POINT (Infinity Infinity)
10144,14800,12732710,2025-10-07,Balance Power Projects Limited,Newburn Haugh Battery Storage Systemc,Battery,Stand-alone Storage,                              ,                              ,                              ,No,,                              ,                              ,                              ,                              ,                              ,                              ,                              ,Planning Permission Granted,Awaiting Construction,                              ,                              ,Land To The South Of Former Glassworks Northumberland Road,Tyne And Wear,North East,England,NE15 8SX,418382,564370,Newcastle upon Tyne,2023/1294/01/DET,                              ,                              ,                              ,                              ,                              ,2023-08-29,,,,,,,2025-12-06,,,,2028-06-12,,,,,54.97361,-1.71437,POINT (-1.71437 54.97361)
10192,14872,12733666,2025-12-05,Ashfield District Council,"Hucknall Leisure Centre, Linby Road - Solar Panels",Solar Photovoltaics,,,,,No,,,,,,,,Roof,Planning Permission Granted,Awaiting Construction,,,"Hucknall Leisure Centre, Linby Road",Nottinghamshire,East Midlands,England,NG15 7TX,453722,349590,Ashfield,V/2023/0500,,,,,,2023-08-30,,,,,,,2025-06-02,,,,2028-02-06,,,,,53.04089,-1.20021,POINT (-1.20021 53.04089)
10193,14873,12734003,2025-09-06,Ashfield District Council,"Weald Farm, Cambridge Road - Solar Farm & Battery Storage",Solar Photovoltaics,,14874,49.90,,No,,,,,,,,Ground,Planning Permission Granted,Awaiting Construction,,,"Ne/O Weald Farm, Cambridge Road, Eynesbury, St Neots",Cambridgeshire,Eastern,England,PE19 6SR,523148,259955,Huntingdonshire,24/00295/FUL,,,,,,2024-04-05,,,,,,,2025-08-05,,,,2027-05-08,,,,784500.00,52.22404,-0.19855,POINT (-0.19855 52.22404)
10194,14874,12734003,2025-09-06,Ashfield District Council,"Weald Farm, Cambridge Road - Solar Farm & Battery Storage",Battery,Co-located with RE,14873,50.00,,No,,,,,,,,,Planning Permission Granted,Awaiting Construction,,,"Ne/O Weald Farm, Cambridge Road, Eynesbury, St Neots",Cambridgeshire,Eastern,England,PE19 6SR,523148,259955,Huntingdonshire,24/00295/FUL,,,,,,2024-04-05,,,,,,,2025-08-05,,,,2027-05-08,,,,,52.22404,-0.19855,POINT (-0.19855 52.22404)
10197,14877,12732962,2025-12-05,J Reddington Limited,"Stanborough, Hatfield - Battery Energy Storage System",Battery,Co-located with RE,14878,1.50,,No,,,,,,,,,Planning Permission Granted,Awaiting Construction,,,Land East of A6129 Stanborough Hatfield ,Hertfordshire,Eastern,England,AL8 7TB,522888,210640,Welwyn Hatfield,6/2023/1802/MAJ,,,,,,2023-08-29,,,,,,,,,,,2027-09-16,,,,,51.78094,-0.22002,POINT (-0.22002 51.78094)
10198,14878,12732962,2025-12-05,J Reddington Limited,"Stanborough, Hatfield - Solar Array ",Solar Photovoltaics,,14877,10.00,,No,,,,,,,,Ground,Planning Permission Granted,Awaiting Construction,,,Land East of A6129 Stanborough Hatfield ,Hertfordshire,Eastern,England,AL8 7TB,522888,210640,Welwyn Hatfield,6/2023/1802/MAJ,,,,,,2023-08-29,,,,,,,,,,,2027-09-16,,,,90500.00,51.78094,-0.22002,POINT (-0.22002 51.78094)
10248,14938,12728941,2025-11-02,Skelton Waste Disposal,"Knowsthorpe Way, Cross Green - Combined Heat and Power Plant",EfW Incineration,,,0.75,,No,,,,,,,,,Planning Permission Granted,Awaiting Construction,,,46 Knowsthorpe Way Cross Green,West Yorkshire,Yorkshire and Humber,England,LS9 0SW,433035,431571,Leeds,23/04970/FU,,,,,,2023-09-14,,,,,,,,,,,2026-12-21,,,,,53.77943,-1.50017,POINT (-1.50017 53.77943)
10256,14947,12737257,2025-10-06,Dunkin Rushton Limited / Moto Hospitality Limited ,Moto Donington Park - Solar Farm,Solar Photovoltaics,,15790,,,No,,,,,,,,Ground,Planning Permission Granted,Awaiting Construction,,,Land At Moto Donington Park M Junction 23A Derby East Midlands,Derbyshire,East Midlands,England,DE74 2TN,446719,325167,North West Leicestershire,23/01712/FULM,,,,,,2024-01-22,,,,,,,2025-12-05,,,,2028-05-12,,,,63600.00,52.82202,-1.30815,POINT (-1.30815 52.82202)
10284,14988,12740945,2025-10-03,Apatura,Glenside Farm - Battery Storage,Battery,Stand-alone Storage,,400.00,,No,,,,,,,,,Planning Permission Granted,Awaiting Construction,,,"Glenside Farm, Plean",Stirling,Scotland,Scotland,FK7 8BA,282979,685896,Scottish Government (S36),ECU00005047,,,,,,2024-02-09,,,,,,,,,,,2030-02-25,,,,,56.05157,-3.88046,POINT (-3.88046 56.05157)
10297,15006,12732819,2025-10-09,Lower Coalmoor BESS Limited,Buildwas Bank - Battery Energy Storage,Battery,Stand-alone Storage,,,,No,,,,,,,,,Appeal Granted,Awaiting Construction,,,"Buildwas Bank, N/O Silvertrees, Jiggers Bank, Coalbrookdale, Telford",Shropshire,West Midlands,England,TF4 3XH,366322,306074,Telford and Wrekin,TWC/2023/0714,,,,,,2023-09-22,,,,,,,,,,,,,,,,52.65134,-2.49925,POINT (-2.49925 52.65134)
10316,15035,12739806,2025-11-09,Eago Limited,"St Albans Court, St Albans Road - Biomass Boilers",Biomass (dedicated),,,0.30,,No,,,,,,,,,Planning Application Withdrawn,Application Withdrawn,,,"Units 6, 7 & 8, St Albans Court, St Albans Road, Stafford",Staffordshire,West Midlands,England,ST16 3DJ,392305,325007,Stafford,23/38153/FUL,,,,,,2023-09-28,2025-08-05,,,,,,,,,,,,,,,52.82254,-2.11563,POINT (-2.11563 52.82254)
10324,15049,12702527,2025-11-09,REDS10 Limited,Leyes Road - New SEN School,Solar Photovoltaics,,,0.24,,No,,,,,,,,Roof,Under Construction,Under Construction,,,"Royal Road, West Beckton, Victoria Dock",London,London,England,E16 3HE,541563,181070,Newham,23/01875/REM,,,,,,2023-09-26,,,,,,,,,,,,,,,,51.51083,0.03857,POINT (0.03857 51.51083)
10388,15133,12743789,2025-08-07,Southern Water Services Limited,"Edenbridge Wastewater Treatment Works, Skinners Lane - Solar Array",Solar Photovoltaics,,,0.62,,No,,,,,,,,Ground,Planning Permission Granted,Awaiting Construction,,,"E/O Edenbridge Wastewater Treatment Works, Skinners Lane, Edenbridge",Kent,South East,England,TN8 6LW,545080,146802,Sevenoaks,KCC/SE/0199/2024,,,,,,2025-01-14,,,,,,,,,,,2028-06-20,,,,,51.20202,0.07525,POINT (0.07525 51.20202)
10398,15145,12739693,2025-10-02,Eden Renewables,Red Barn - Solar Farm & Battery Storage,Solar Photovoltaics,,15146,40.00,,No,,,,,,,,Ground,Planning Permission Granted,Awaiting Construction,,,"Red Barn, East of Kington St Michael",Wiltshire,South West,England,SN14 6BQ,391346,177963,Wiltshire,PL/2023/08481,,,,,,2023-10-11,,,,,,,,,,,2028-01-27,,,,1027600.00,51.50054,-2.12606,POINT (-2.12606 51.50054)
10399,15146,12739693,2025-10-02,Eden Renewables,Red Barn - Solar Farm & Battery Storage,Battery,Co-located with RE,15145,40.00,,No,,,,,,,,,Planning Permission Granted,Awaiting Construction,,,"Red Barn, East of Kington St Michael",Wiltshire,South West,England,SN14 6BQ,391346,177963,Wiltshire,PL/2023/08481,,,,,,2023-10-11,,,,,,,,,,,2028-01-27,,,,,51.50054,-2.12606,POINT (-2.12606 51.50054)
10421,15176,12746919,2025-08-04,Intergen Limited,Kilmarnock Battery Energy Storage System,Battery,Stand-alone Storage,,500.00,,No,,,,,,,,,Planning Permission Granted,Awaiting Construction,,,250 metres (m) to the north of the existing Kilmarnock South Substation,Ayrshire,Scotland,Scotland,KA1 5JW,246381,633639,Scottish Government (S36),ECU00004941,,,,,,2023-09-28,,,,,,,2025-07-04,,,,2028-04-07,,,,,55.57213,-4.43802,POINT (-4.43802 55.57213)
10443,15213,12743294,2025-12-05,Centrica Business Solutions,"Carpenter Plc, Dinting Lodge Industrial Estate - Solar Array",Solar Photovoltaics,,,1.00,,No,,,,,,,,Ground,Planning Permission Granted,Awaiting Construction,,,"Carpenter Plc, Dinting Lodge Industrial Estate, Dinting, Glossop",Derbyshire,East Midlands,England,SK13 6LE,401551,394841,High Peak,HPK/2023/0442,,,,,,2023-10-31,,,,,,,2025-10-03,,,,2028-03-10,,,,23500.00,53.45033,-1.97811,POINT (-1.97811 53.45033)
10454,15230,12678491,2025-10-02,Coventry Energy Storage Limited,"Hodgetts Lane, Berkswell - Electricity Storage Facility",Battery,Stand-alone Storage,,49.90,,No,,,,,,,,,Appeal Granted,Awaiting Construction,16974,12936,"E/O Hodgetts Lane, Berkswell, Solihull",West Midlands,West Midlands,England,CV7 7DF,426599,276542,Solihull,PL/2023/02196/PPFL,AP/2024/00031/REF,,,,,2023-10-25,,,2024-07-16,,,,,,,,2028-01-25,,,,,52.38627,-1.61061,POINT (-1.61061 52.38627)
10455,15233,12745553,2025-08-07,Renewable Energy Systems Limited,"Dunmill, Substation Dun - Battery Energy Storage",Battery,Stand-alone Storage,,49.90,,No,,,,,,,,,Planning Permission Granted,Awaiting Construction,,,"300m Ne/O Bridge Of Dun, Substation Dun, Montrose",Angus,Scotland,Scotland,DD10 9LH,366043,758883,Angus,24/00038/FULM,,,,,,2024-01-29,,,,,,,,,,,2030-08-14,,,,,56.72038,-2.55643,POINT (-2.55643 56.72038)
10462,15248,12617898,2025-11-09,Enviromena,Rock Farm - Solar Farm,Battery,Co-located with RE,15248,12.00,,No,,,,,,,,,Planning Permission Granted,Awaiting Construction,,,SE Of Rock Farm Rocks Green Ludlow ,Shropshire,West Midlands,England,SY8 2DS,352474,275748,Shropshire,22/05424/EIA,,,,,,2022-12-02,,,,,,,,,,,2026-09-25,,,,,52.3777,-2.69959,POINT (-2.69959 52.3777)
10464,15251,12745569,2025-08-07,Moto Hospitality Limited (Head Office),"Pirnhall Services, Bannockburn Interchange -  Solar Panels",Solar Photovoltaics,,,4.00,,No,,,,,,,,Ground,Planning Permission Granted,Awaiting Construction,,,"Nw/O Pirnhall Services, Bannockburn Interchange, Stirling",Stirling,Scotland,Scotland,FK7 8EU,280437,688659,Stirling,24/00361/FUL,,,,,,2024-05-29,,,,,,,,,,,2028-05-20,,,,33200.00,56.07575,-3.92248,POINT (-3.92248 56.07575)
10474,15263,12746434,2025-11-09,AW1 Energy Storage Limited,"Uskmouth Power Station, West Nash Road - Battery Storage Facility",Battery,Stand-alone Storage,,120.00,,No,,,,,,,,,Planning Permission Granted,Awaiting Construction,,,"Uskmouth Power Station, West Nash Road, Nash, Newport",Gwent,Wales,Wales,NP18 2BZ,333508,183360,Newport,23/0949,,,,,,2023-10-25,,,,,,,2024-11-01,,,,2029-01-11,,,,,51.5452,-2.96025,POINT (-2.96025 51.5452)
10475,15264,12747926,2025-10-02,Copt Heath Golf Club,Copt Heath Golf Club - Solar Farm,Solar Photovoltaics,,,0.35,,No,,,,,,,,Ground,Planning Permission Granted,Awaiting Construction,,,"Copt Heath Golf Club - Solar Farm, 1220 Warwick Road, Knowle",West Midlands,West Midlands,England,B93 9LN,417376,277764,Solihull,PL/2024/00062/PPFL,,,,,,2024-01-11,,,,,,,,,,,2027-05-31,,,,12000.00,52.39762,-1.74606,POINT (-1.74606 52.39762)
10484,15273,12747311,2025-10-04,Starlight Energy,Derby Road - Solar Panels,Solar Photovoltaics,,15274,38.00,,No,,,,,,,,Ground,Planning Application Submitted,Application Submitted,,,"E/O Derby Road, Ripley",Derbyshire,East Midlands,England,DE5 3BT,439755,350519,Amber Valley,AVA/2024/0877,,,,,,2025-03-20,,,,,,,,,,,,,,,,53.05046,-1.40839,POINT (-1.40839 53.05046)
10485,15274,12747311,2025-10-04,Starlight Energy,Derby Road - Battery Energy Storage System,Battery,Co-located with RE,15273,40.00,,No,,,,,,,,,Planning Application Submitted,Application Submitted,,,"E/O Derby Road, Ripley",Derbyshire,East Midlands,England,DE5 3BT,439755,350519,Amber Valley,AVA/2024/0877,,,,,,2025-03-20,,,,,,,,,,,,,,,,53.05046,-1.40839,POINT (-1.40839 53.05046)
10553,15375,12747210,2025-11-09,Newton Energi Limited,"Corner Of Weeland Road, Lunn Lane - Battery Storage Facility",Battery,Stand-alone Storage,,200.00,,No,,,,,,,,,Planning Permission Granted,Awaiting Construction,,,Lunn Lane Kellington,East Riding of Yorkshire,Yorkshire and Humber,England,DN14 0XT,454587,424152,North Yorkshire,ZG2023/1179/FULM,,,,,,2023-11-02,,,,,,,,,,,2028-07-31,,,,,53.71094,-1.17445,POINT (-1.17445 53.71094)
10554,15376,12749395,2025-08-07,Stream BioEnergy Limited,Tambowie Farm - Anaerobic Digestion Project,Anaerobic Digestion,,,,,No,,,,,,,,,Planning Application Withdrawn,Application Withdrawn,,,Tambowie Biogas Plant Tambowie Farm Tambowie Craigton Village Milngavie,Strathclyde,Scotland,Scotland,G62 7HN,252951,675544,East Dunbartonshire,TP/ED/23/0628,,,,,,2023-11-10,2025-06-02,,,,,,,,,,,,,,,55.95036,-4.35651,POINT (-4.35651 55.95036)
10560,15384,12754217,2025-08-07,Low Carbon Limited,Glen Lednock Wind Farm,Wind Onshore,,,,,No,,,,,,25,220.00,,Planning Application Submitted,Application Submitted,,,"Invergeldie Estate, Comrie",Perth and Kinross,Scotland,Scotland,PH6,267181,730482,Scottish Government (S36),ECU00004966,,,,,,2025-06-11,,,,,,,,,,,,,,,,56.44774,-4.15632,POINT (-4.15632 56.44774)
10576,15411,12749971,2025-12-05,Luminous Energy Limited,Cattybrook Solar Farm,Solar Photovoltaics,,15626,,,No,,,,,,,,Ground,Planning Permission Granted,Awaiting Construction,,,Near Boardinghouse Lane Almondsbury,Gloucestershire,South West,England,BS32 4ES,358967,183908,South Gloucestershire,P23/03430/F,,,,,,2023-12-13,,,,,,,,,,,,,,,828500.00,51.55256,-2.59321,POINT (-2.59321 51.55256)
10599,15448,12754695,2025-12-05,Hoben International Limited,"Brassington Works, Manystones Lane - Solar Farm",Solar Photovoltaics,,,4.30,,No,,,,,,,,Ground,Planning Permission Granted,Awaiting Construction,,,North East Of Manystones Lane Brassington,Derbyshire,East Midlands,England,DE4 4HF,424638,355468,Derbyshire Dales,23/01271/FUL,,,,,,2023-12-06,,,,,,,,,,,,,,,50800.00,53.09585,-1.63352,POINT (-1.63352 53.09585)
10617,15469,12755182,2025-10-02,Phinia Delphi UK Limited,"Phinia, Courteney Road - Solar Panels",Solar Photovoltaics,,,1.82,,No,,,,,,,,Roof,Planning Permission Granted,Awaiting Construction,,,"Phinia, Courtney Road, Gillingham",Kent,South East,England,ME8 0RU,579856,165451,Medway,MC/23/2763,,,,,,2023-12-11,,,,,,,2024-01-03,,,,,,,,30000.00,51.35965,0.58191,POINT (0.58191 51.35965)
10621,15474,12755064,2025-12-05,Vicarage Drove Bess Limited (AGR Group),Vicarage Drove - Battery Storage Facility,Battery,Stand-alone Storage,,,,No,,,,,,,,,Planning Permission Granted,Awaiting Construction,,,"S/O Vicarage Drove, Bicker, Boston",Lincolnshire,East Midlands,England,PE20 3BF,519567,338547,Boston,B/24/0363,,,,,,2024-09-10,,,,,,,2025-05-02,,,,,,,,,52.93102,-0.22261,POINT (-0.22261 52.93102)
10624,15477,12756670,2025-09-06,FRELIF (Harlow) Llp,Allerdyce Road - Solar panels,Solar Photovoltaics,,,0.23,,No,,,,,,,,Roof,Planning Application Withdrawn,Application Withdrawn,,,"5 Allerdyce Road, Glasgow",Strathclyde,Scotland,Scotland,G15 6AZ,251764,670368,Glasgow City,23/02377/FUL,,,,,,2023-12-12,2025-05-13,,,,,,,,,,,,,,,55.90353,-4.37266,POINT (-4.37266 55.90353)
10627,15481,12756183,2025-10-02,Inver Hydro Limited,Cnocbreac Inver Estate - Solar Generation,Solar Photovoltaics,,,2.10,,No,,,,,,,,Ground,Under Construction,Under Construction,,,"Adj To Cnocbreac Inver Estate, Isle of Jura",Argyll and Bute ,Scotland,Scotland,PA60 7XG,153017,669212,Argyll and Bute,24/01390/PP,,,,,,2024-08-07,,,,,,,,,,,,,,,76600.00,55.85266,-5.94772,POINT (-5.94772 55.85266)
10711,15601,12752056,2025-12-05,Loughborough University,"Atic Building, Loughborough Science Park - Solar Panels",Solar Photovoltaics,,,0.21,,No,,,,,,,,Ground,Planning Permission Granted,Awaiting Construction,,,"The W/O Atic Building, Loughborough University Science & Enterprise Park (Lusep), Phase 2, Loughborough",Leicestershire,East Midlands,England,LE11 4EX,451074,318426 ,Charnwood,P/23/2140/2,,,,,,2023-12-08,,,,,,,,,,,,,,,4900.00,52.76103,-1.24458,POINT (-1.24458 52.76103)
10730,15626,12749971,2025-12-05,Luminous Energy Limited,Cattybrook Solar Farm,Battery,Co-located with RE,15411,,,No,,,,,,,,,Planning Permission Granted,Awaiting Construction,,,Near Boardinghouse Lane Almondsbury,Gloucestershire,South West,England,BS32 4ES,358967,183908,South Gloucestershire,P23/03430/F,,,,,,2023-12-13,,,,,,,,,,,,,,,,51.55256,-2.59321,POINT (-2.59321 51.55256)
10758,15668,12752960,2025-10-03,Beryl Street Generation Limited,Speke Hall Avenue - Battery Energy Storage System,Battery,Stand-alone Storage,,,,No,,,,,,,,,Planning Permission Granted,Awaiting Construction,,,"The W/O Speke Hall Avenue, Liverpool",Merseyside,North West,England,L24 1YA,342574,383180,Liverpool,23F/3121,,,,,,2023-12-18,,,,,,,2025-11-02,,,,,,,,,53.34239,-2.86398,POINT (-2.86398 53.34239)
10762,15672,12758410,2025-10-01,Renewable Energy Systems RES ltd (Beaufort),Beane Solar Farm - Solar Panels,Solar Photovoltaics,,17726,49.90,,No,,,,,,,,Ground,Planning Application Submitted,Application Submitted,,,"Nw/O Cottered & Sw/O The A507 Cottered, Buntingford",Hertfordshire,Eastern,England,SG9 9QX,532524,229380,East Hertfordshire,3/24/2245/FUL,,,,,,2024-12-20,,,,,,,,,,,,,,,850000.00,51.94714,-0.07323,POINT (-0.07323 51.94714)
10763,15673,12761582,2025-10-07,Net Zero Seventeen Limited,"West Farm, Aspatria - Battery Storage Facility",Battery,Stand-alone Storage,,50.00,,No,,,,,,,,,Planning Permission Granted,Awaiting Construction,,,"West Farm, West Street, Aspatria, Wigton",Cumbria,North West,England,CA7 3HH,313998,541621,Cumberland,FUL/2024/0085,,,,,,2024-04-22,,,,,,,2024-04-09,,,,,,,,,54.76213,-3.33807,POINT (-3.33807 54.76213)
10853,15779,12758731,2025-11-02,Ouse Energy Limited,"Ridham Avenue, Swale Way - Kemsley Battery Energy Storage",Battery,Stand-alone Storage,,249.00,,No,,,,,,,,,Planning Permission Granted,Awaiting Construction,,,"The S/O Ridham Avenue, E/O Swale Way, Sittingbourne",Kent,South East,England,ME10 2UR,591496,166099,Swale,23/505752/FULL,,,,,,2024-01-16,,,,,,,,,,,,,,,,51.36167,0.74925,POINT (0.74925 51.36167)
10861,15790,12737257,2025-10-06,Dunkin Rushton Limited / Moto Hospitality Limited ,Moto Donington Park - Solar Farm,Battery,Stand-alone Storage,,,,No,,,,,,,,,Planning Permission Granted,Awaiting Construction,,,Land At Moto Donington Park M Junction 23A Derby East Midlands,Derbyshire,East Midlands,England,DE74 2TN,446719,325167,North West Leicestershire,23/01712/FULM,,,,,,2024-01-22,,,,,,,2025-12-05,,,,,,,,,52.82202,-1.30815,POINT (-1.30815 52.82202)
10862,15793,12767634,2025-08-08,Island Green Power,Green Hill Solar Farm & Battery Storage,Solar Photovoltaics,,15794,600.00,,No,,,,,,,,Ground,Planning Application Submitted,Application Submitted,,,"Wilby Road, Mears Ashby",Northamptonshire,East Midlands,England,NN6 0EB,484137,266542,The Planning Inspectorate - National Infrastructure,EN010170,,,,,,2025-06-19,,,,,,,,,,,,,,,1737000.00,52.29058,-0.76785,POINT (-0.76785 52.29058)
10863,15794,12767634,2025-08-08,Island Green Power,Green Hill Solar Farm & Battery Storage,Battery,Co-located with RE,15793,600.00,,No,,,,,,,,,Planning Application Submitted,Application Submitted,,,"Wilby Road, Mears Ashby",Northamptonshire,East Midlands,England,NN6 0EB,484137,266542,The Planning Inspectorate - National Infrastructure,EN010170,,,,,,2025-06-19,,,,,,,,,,,,,,,,52.29058,-0.76785,POINT (-0.76785 52.29058)
10867,15800,12752481,2025-10-03,Burrington Estates (New Homes Thrive Hubs),Winslade Park - Solar Array,Solar Photovoltaics,,,1.88,,No,,,,,,,,Ground,Appeal Granted,Awaiting Construction,,,"Winslade Park, Exeter",Devon,South West,England,EX5 1FY,298001,90223,East Devon,23/2506/MFUL,APP/U1105/W/24/3350852 ,,,,,2024-01-17,,,2024-08-29,,,,,,,,,,,,30100.00,50.70267,-3.44575,POINT (-3.44575 50.70267)
10869,15802,12760999,2025-10-03,Anglo ES Great Wyrley Limited,"Hobble Lane, Great Wyrley -  Battery Energy Storage",Battery,Stand-alone Storage,,49.90,,No,,,,,,,,,Planning Permission Granted,Awaiting Construction,,,"Off Hobble Lane, Great Wyrley, Walsall, Walsall",West Midlands,West Midlands,England,WS6 6AS,399527,305194,South Staffordshire,24/00010/FULM,,,,,,2024-01-05,,,,,,,,,,,,,,,,52.64448,-2.00843,POINT (-2.00843 52.64448)
10893,15828,12767328,2025-11-02,Infinis Energy Services Limited,"Aveley Landfill, Sandy Lane - PV Solar Array & Battery Energy Storage",Solar Photovoltaics,,,16.00,,No,,,,,,,,Ground,Planning Permission Granted,Awaiting Construction,,,Infinis Ltd Aveley Landfill Sandy Lane Aveley,Essex,Eastern,England,RM15 4XP,555379,180639,Thurrock,24/00141/FUL,,,,,,2024-02-05,,,,,,,,,,,,,,,227000.00,51.50333,0.23731,POINT (0.23731 51.50333)
10894,15829,12767328,2025-11-02,Infinis Energy Services Limited,"Aveley Landfill, Sandy Lane - PV Solar Array & Battery Energy Storage",Battery,Stand-alone Storage,,,,No,,,,,,,,,Planning Permission Granted,Awaiting Construction,,,Infinis Ltd Aveley Landfill Sandy Lane Aveley,Essex,Eastern,England,RM15 4XP,555379,180639,Thurrock,24/00141/FUL,,,,,,2024-02-05,,,,,,,,,,,,,,,,51.50333,0.23731,POINT (0.23731 51.50333)
10926,15874,12768479,2025-10-02,The James Hutton Institute,HydroGlen Project - Glensaugh Farm,Wind Onshore,,,1.00,,No,,,,,1.00,1,76.00,,Under Construction,Under Construction,,,North Of Glensaugh Farm Fettercairn ,Aberdeenshire,Scotland,Scotland,AB30 1HB,366408,777307,Aberdeenshire,APP/2023/2334,,,,,,2024-02-07,,,,,,,,,,,,2025-01-01,,,,56.88591,-2.5529,POINT (-2.5529 56.88591)
10948,15902,12766797,2025-10-07,Pegasus Group,Woodford Road - Battery Energy Storage System,Battery,Stand-alone Storage,,100.00,,No,,,,,,,,,Planning permission granted,Awaiting Construction,,,"W/O Woodford Road, Stockport",Cheshire,North West,England,SK7 1QQ,389831,383188,Stockport,24/5075/FUL,,,,,,2024-12-16,,,,,,,,,,,,,,,,53.34549,-2.15421,POINT (-2.15421 53.34549)
10962,15917,12766637,2025-08-07,Farncombe Estates Holding Limited,"Bibsworth Lane, Willersey - Solar Farm",Solar Photovoltaics,,,3.20,,No,,,,,,,,Ground,Planning Permission Granted,Awaiting Construction,,,"N/O Bibsworth Lane, Btw Willersey And Broadway, Broadway",Worcestershire,West Midlands,England,WR12 7LJ,410244,238576,Wychavon,W/24/00190/FUL,,,,,,2024-02-28,,,,,,,,,,,,,,,40300.00,52.04549,-1.85205,POINT (-1.85205 52.04549)
10966,15923,12768074,2025-08-04,Arran Community Renewables,"Glenkiln Farm, Lamlash Brodick - Solar Farm",Solar Photovoltaics,,,6.00,,No,,,,,,,,Ground,Planning Permission Granted,Awaiting Construction,,,"Glenkiln Farm, Lamlash Brodick, Isle of Arran",North Ayrshire,Scotland,Scotland,KA27 8NT,201440,630542,North Ayrshire,25/00017/PP,,,,,,2025-01-20,,,,,,,,,,,,,,,68000.00,55.52811,-5.14751,POINT (-5.14751 55.52811)
10978,15940,12768631,2025-12-05,Public Power Solution Limited,"Cobham Road, Bookham - Solar Farm",Solar Photovoltaics,,,49.50,,No,,,,,,,,Ground,Planning Permission Refused,Application Refused,,,"Slyfield Farm, Cobham Road, Bookham, Cobham",Surrey,South East,England,KT11 3QE,513356,157882,Mole Valley,MO/2024/1048,,,,,,2024-07-09,,,,,,,,,,,,,,,497781.00,51.30877,-0.37511,POINT (-0.37511 51.30877)
11076,16081,12773342,2025-11-06,Enviromena Project Management UK Limited,"High Barnes Farm, Coal Lane - Solar Farm",Solar Photovoltaics,,16082,49.90,,No,,,,,,,,Ground,Planning Permission Granted,Awaiting Construction,,,"High Barnes Farm, Coal Lane, Elwick, Hartlepool",Cleveland,North East,England,TS27 3HD,443877,532162,Hartlepool,H/2024/0180,,,,,,2024-08-06,,,,,,,,,,,,,,,782600.00,54.68261,-1.32098,POINT (-1.32098 54.68261)
11077,16082,12773342,2025-11-06,Enviromena Project Management UK Limited,"High Barnes Farm, Coal Lane - Battery Storage",Battery,Co-located with RE,16081,25.00,,No,,,,,,,,,Planning Permission Granted,Awaiting Construction,,,"High Barnes Farm, Coal Lane, Elwick, Hartlepool",Cleveland,North East,England,TS27 3HD,443877,532162,Hartlepool,H/2024/0180,,,,,,2024-08-06,,,,,,,,,,,,,,,,54.68261,-1.32098,POINT (-1.32098 54.68261)
11078,16083,12773358,2025-12-05,Greenside Wind Energy Limited,Greenside Extension - Wind Turbines,Wind Onshore,,,7.05,,No,,,,,2.35,3,100.00,,Planning Permission Granted,Awaiting Construction,,,"Overside & Greenwellheads Farms, Crimond, Fraserburgh, Peterhead",Aberdeenshire,Scotland,Scotland,AB42 3HJ,406290,855201,Aberdeenshire,APP/2024/0229,,,,,,2024-03-04,,,,,,,,,,,,,,,,57.58681,-1.89646,POINT (-1.89646 57.58681)
11086,16091,12766432,2025-12-05,One Planet Developments Limited,Immingham Solar Farm - Solar Farm ,Solar Photovoltaics,,,49.90,,No,,,,,,,,Ground,Planning Permission Granted,Awaiting Construction,,,"Adj To A180, To S/O Immingham, Immingham",Lincolnshire,Yorkshire and Humber,England,DN40 3BH,518871,413731,North East Lincolnshire,DM/0108/24/FUL,,,,,,2024-02-22,,,,,,,2025-06-05,,,,,,,,1095500.00,53.60666,-0.20488,POINT (-0.20488 53.60666)
11087,16092,12766432,2025-12-05,One Planet Developments Limited,Immingham Solar Farm - Battery Storage Facility,Battery,Stand-alone Storage,,30.00,,No,,,,,,,,,Planning Permission Granted,Awaiting Construction,,,"Adj To A180, To S/O Immingham, Immingham",Lincolnshire,Yorkshire and Humber,England,DN40 3BH,518871,413731,North East Lincolnshire,DM/0108/24/FUL,,,,,,2024-02-22,,,,,,,2025-06-05,,,,,,,,,53.60666,-0.20488,POINT (-0.20488 53.60666)
11141,16163,12565734,2025-12-05,Fig Power Limited,Spittal Mains Quarry - Battery storage,Battery,Stand-alone Storage,,49.90,,No,,,,,,,,,Planning Permission Granted,Awaiting Construction,,,Spittal Mains Quarry Spittal  ,Highland,Scotland,Scotland,KW1 5XR,316867,953875,Highland,24/02827/FUL,,,,,,2024-07-15,,,,,,,,,,,,,,,,58.46518,-3.42669,POINT (-3.42669 58.46518)
11159,16191,12779109,2025-10-06,Masdar Arlington Energy,"Upton Lane, Nursling - Battery Energy Storage",Battery,Stand-alone Storage,,99.90,,No,,,,,,,,,Planning Permission Granted,Awaiting Construction,,,Upton Lane Nursling ,Hampshire,South East,England, SO16 0XY,437203,116775,Test Valley,24/02264/FULLS,,,,,,2024-10-01,,,,,,,,,,,2028-05-15,,,,,50.94922,-1.47178,POINT (-1.47178 50.94922)
11200,16253,12780960,2025-10-03,Ecotricity Limited,Fen Farm - Solar Park,Solar Photovoltaics,,,14.00,,No,,,,,,,,Ground,Planning Permission Granted,Awaiting Construction,,,"Fen Farm, S/O Fen Lane, Conisholme, Louth",Lincolnshire,East Midlands,England,LN11 7LU,538810,393768,East Lindsey,N/036/00565/24,,,,,,2024-04-09,,,,,,,2024-02-08,,,,2027-08-02,,,,205000.00,53.42245,0.08743,POINT (0.08743 53.42245)
11215,16273,12783113,2025-10-02,Clarke,"Cornabo, Monymusk - Wind turbines",Wind Onshore,,,3.90,,No,,,,,1.30,3,75.00,,Planning Permission Granted,Awaiting Construction,,,"Sw/O Cornabo, Monymusk, Inverurie",Aberdeenshire,Scotland,Scotland,AB51 7JL,364139,817416,Aberdeenshire,APP/2024/0631,,,,,,2024-04-17,,,,,,,,,,,,,,,,57.24603,-2.59588,POINT (-2.59588 57.24603)
11218,16276,12783327,2025-11-09,Heron Energy Limited,Battery Energy Storage System Development in Ballymena,Battery,Stand-alone Storage,,,,No,,,,,,,,,Planning Permission Granted,Awaiting Construction,,,"Lands Approximately 80m West of 92 Parkgate Road, Kells, Ballymena",Co. Antrim,Northern Ireland,Northern Ireland,BT42 3PG,131701,551044,Antrim and Newtownabbey,LA03/2024/0182/F,,,,,,2024-03-11,,,,,,,,,,,2030-08-25,,,,,54.78235,-6.17432,POINT (-6.17432 54.78235)
11227,16286,12782562,2025-10-06,Opdenergy,"Newburgh Road, Abernethy - Battery Energy Storage Facility",Battery,Stand-alone Storage,,49.90,,No,,,,,,,,,Planning Permission Granted,Awaiting Construction,,,"200 Metres N/O Pitcurran House, Newburgh Road, Abernethy",Perth and Kinross,Scotland,Scotland,PH2 9LH,319552,716724,Perth and Kinross,24/01386/FLM,,,,,,2024-11-18,,,,,,,,,,,2030-05-15,,,,,56.33602,-3.30281,POINT (-3.30281 56.33602)
11231,16294,12783242,2025-10-02,Scottish Water Horizons,"Middleton Road, Linwood - Solar Photovoltaic Panels ",Solar Photovoltaics,,,1.64,,No,,,,,,,,Ground,Planning Permission Granted,Awaiting Construction,,,"Former Water Treatment Works, Middleton Road, Linwood, Paisley, Strathclyde",Renfrewshire,Scotland,Scotland,PA3 3DP,244565,665004,Renfrewshire,24/0248/PP,,,,,,2024-04-15,,,,,,,,,,,2028-01-23,,,,22505.00,55.85311,-4.48461,POINT (-4.48461 55.85311)
11232,16295,12783242,2025-10-02,Scottish Water Horizons,"Middleton Road, Linwood -  Battery Storage",Battery,Stand-alone Storage,,,,No,,,,,,,,,Planning Permission Granted,Awaiting Construction,,,"Former Water Treatment Works, Middleton Road, Linwood, Paisley, Strathclyde",Renfrewshire,Scotland,Scotland,PA3 3DP,244565,665004,Renfrewshire,24/0248/PP,,,,,,2024-04-15,,,,,,,,,,,2028-01-23,,,,,55.85311,-4.48461,POINT (-4.48461 55.85311)
11268,16345,12783863,2025-11-09,Trant Engineering Limited,"Fletchwood Lane, Totton - Solar Park",Solar Photovoltaics,,,5.26,,No,,,,,,,,Ground,Planning Application Submitted,Application Submitted,,,"Fletchwood Lane, Totton,",Hampshire,South East,England,SO40 7DZ,433776,112074,New Forest,25/00760FULL,,,,,,2025-07-28,,,,,,,,,,,,,,,135000.00,50.90715,-1.52099,POINT (-1.52099 50.90715)
11297,16374,12786448,2025-08-07,Private Developer,"Moat Barn, Moat Lane - Solar Panels",Solar Photovoltaics,,,,,No,,,,,,,,Ground,Appeal Granted,Awaiting Construction,,,"Moat Barn, Moat Lane, Wickersley, Rotherham",South Yorkshire,Yorkshire and Humber,England,S66 1DZ,448470,390402,Rotherham,RB2024/0638,,,,,,2024-04-29,,,,,,,,,,,2028-06-13,,,,,53.40822,-1.27234,POINT (-1.27234 53.40822)
11308,16389,12529248,2025-10-07,Nether Carswell Three Limited,Nether Carswell Cottage Wind Turbine,Wind Onshore,,,4.20,,No,,,,,4.20,1,124.75,,Abandoned,Abandoned,,,"370m S/O Nether Carswell Cottage Kingston Road, Neilston Kilmarnock",Strathclyde,Scotland,Scotland,KA3 4EQ,244922,652433,East Ayrshire,2024/0213/TP,,,,,,2024-04-23,,,,,,,,,,,,,,,,55.74038,-4.47175,POINT (-4.47175 55.74038)
11314,16396,12785944,2025-08-07,Galileo Empower UK Limited ,Lynemore  Wind Farm,Wind Onshore,,,100.80,,No,,,,,7.20,14,200.00,,Planning Application Submitted,Application Submitted,,,2000M SW Of Lynemore Moy,Highland,Scotland,Scotland,IV13 7YP,279568,829797,Scottish Government (S36),ECU00005105,,,,,,2025-05-01,,,,,,,,,,,,,,,,57.34272,-4.00267,POINT (-4.00267 57.34272)
11315,16397,12785944,2025-08-07,Galileo Empower UK Limited ,Lynemore  Wind Farm,Battery,Stand-alone Storage,,50.00,,No,,,,,,,,,Planning Application Submitted,Application Submitted,,,2000M SW Of Lynemore Moy,Highland,Scotland,Scotland,IV13 7YP,279568,829797,Scottish Government (S36),ECU00005105,,,,,,2025-05-01,,,,,,,,,,,,,,,,57.34272,-4.00267,POINT (-4.00267 57.34272)
11351,16440,12787674,2025-12-05,Renewabuild Limited,"The Beeches, Alkington - Solar Panels",Solar Photovoltaics,,,,,No,,,,,,,,Ground,Planning Permission Granted,Awaiting Construction,,,"The Beeches, Alkington, Whitchurch",Shropshire,West Midlands,England,SY13 3NG,353003,338998,Shropshire,24/04440/FUL,,,,,,2024-11-21,,,,,,,,,,,2028-04-23,,,,,52.9463,-2.70086,POINT (-2.70086 52.9463)
11353,16443,12791198,2025-10-01,"Teesworks Ltd, NatPower UK",Teesworks Battery Storage Project,Battery,Stand-alone Storage,,1000.00,,No,,,,,,,,,Planning Application Submitted,Application Submitted,,,"Teesworks, Steel House Gate",North Yorkshire,North East,England,TS10 5QW,457691,524154,Redcar and Cleveland,R/2024/0843/FFM,,,,,,2024-12-19,,,,,,,,,,,,,,,,54.60926,-1.10832,POINT (-1.10832 54.60926)
11356,16446,12790166,2025-08-04,Heron Storage Limited,Battery Energy Storage System Development in Tyrone,Battery,Stand-alone Storage,,50.00,,No,,,,,,,,,Planning Permission Granted,Awaiting Construction,,,"Lands Immediately East of Doogary Road and, 110m East of 8 and 10 Doogary Road, Omagh, Tyrone",Co. Fermanagh,Northern Ireland,Northern Ireland,BT94,28107,507204,Fermanagh and Omagh,LA10/2024/0294/F,,,,,,2024-04-11,,,,,,,,,,,,,,,,54.3244,-7.7224,POINT (-7.7224 54.3244)
11380,16471,12785380,2025-08-07,Ylem Energy Limited,"Addison Road, Toronto - Battery Energy Storage",Battery,Stand-alone Storage,,,,No,,,,,,,,,Planning Permission Granted,Awaiting Construction,,,"Addison Road, Toronto, Bishop Auckland",County Durham,North East,England,DL14 7RH,418767,531084,County Durham,DM/24/01138/FPA,,,,,,2024-05-15,,,,,,,2025-05-02,,,,2028-02-05,,,,,54.67448,-1.7105,POINT (-1.7105 54.67448)
11381,16472,12787298,2025-11-09,Cragside Energy Limited,"Crondall Road, Crondall - Fleet Bramley Battery Energy Storage",Battery,Stand-alone Storage,,99.90,,No,,,,,,,,,Planning Permission Granted,Awaiting Construction,,,"West Side Of Crondall Road, Crondall, Farnham",Surrey,South East,England,GU10 5RU,479526,150518,Hart,24/02491/FUL,,,,,,2025-01-09,,,,,,,,,,,2028-08-22,,,,,51.2483,-0.86197,POINT (-0.86197 51.2483)
11404,16518,12788878,2025-08-07,Keystone Ventures International Limited,"Watering Lane Nursery, Lobbs Shop - Solar PV Panels & Battery Storage System",Solar Photovoltaics,,,,,No,,,,,,,,Ground,Planning Permission Granted,Awaiting Construction,,,South West Of Watering Lane Nursery Lobbs Shop,Cornwall,South West,England,PL26 6BE,201490,49130,Cornwall,25/00381/FUL,,,,,,2025-02-20,,,,,,,2025-02-06,,,,2028-06-02,,,,,50.30862,-4.78925,POINT (-4.78925 50.30862)
11406,16520,12788878,2025-08-07,Keystone Ventures International Limited,"Watering Lane Nursery, Lobbs Shop - Solar PV Panels & Battery Storage System",Battery,Stand-alone Storage,,,,No,,,,,,,,,Planning Permission Granted,Awaiting Construction,,,South West Of Watering Lane Nursery Lobbs Shop,Cornwall,South West,England,PL26 6BE,201490,49130,Cornwall,25/00381/FUL,,,,,,2025-02-20,,,,,,,2025-02-06,,,,2028-06-02,,,,,50.30862,-4.78925,POINT (-4.78925 50.30862)
11421,16542,12791122,2025-11-09,China Fleet Club,"China Fleet Country Club, Pill Lane -  Solar Array",Solar Photovoltaics,,,0.60,,No,,,,,,,,Ground,Planning Application Submitted,Application Submitted,,,China Fleet Country Club Ltd Pill Lane North Pill,Cornwall,South West,England,PL12 6LJ,242759,59982,Cornwall,PA24/07255,,,,,,2024-10-08,,,,,,,,,,,,,,,40000.00,50.4186,-4.21472,POINT (-4.21472 50.4186)
11426,16548,12791667,2025-10-09,Energyline Limited,Brompton Solar Farm - Solar Farm,Solar Photovoltaics,,,39.30,,No,,,,,,,,Ground,Planning Permission Granted,Awaiting Construction,,,North Of Brompton On Swale,North Yorkshire,Yorkshire and Humber,England,DL10 7HE,421662,499724,North Yorkshire,ZD25/00038/FULL,,,,,,2025-02-06,,,,,,,,,,,2028-08-21,,,,800000.00,54.39254,-1.6679,POINT (-1.6679 54.39254)
11494,16628,12793833,2025-12-05,FRV TH Powertek Limited,"Bicker Fen Bess, Vicarage Drove - Battery Storage",Battery,Stand-alone Storage,,400.00,,No,,,,,,,,,Planning Permission Granted,Awaiting Construction,,,"Bicker Fen BESS, Land off Vicarage Drove, Bicker Fen",Lincolnshire,East Midlands,England,PE20 3BN,521089,338272,Boston,B/24/0415,,,,,,2024-10-10,,,,,,,2025-05-02,,,,2030-02-05,,,,,52.92821,-0.20008,POINT (-0.20008 52.92821)
11508,16644,12795948,2025-09-06,Newton Energi Limited,"Springfield Farm, Weeland Road  - Battery Energy Storage Facility",Battery,Stand-alone Storage,,240.00,,No,,,,,,,,,Planning Permission Granted,Awaiting Construction,,,Springfield Farm Weeland Road Hensall,East Riding of Yorkshire,Yorkshire and Humber,England,DN14 0RL,457624,423037,North Yorkshire,ZG2024/0549/FULM,,,,,,2024-06-17,,,,,,,2025-07-05,,,,2027-05-07,,,,,53.7006,-1.12865,POINT (-1.12865 53.7006)
11543,16692,12122579,2025-08-07,E Power Limited,Shennanton Wind Farm,Wind Onshore,,,30.00,,No,,,,,2.50,12,200.00,,Planning Application Submitted,Application Submitted,,,"Shennanton Wind Farm, Kirkcowan, Newton Stewart, Wigtownshire",Dumfries and Galloway,Scotland,Scotland,DG8 0EG,234018,564309,Dumfries and Galloway,ECU00005101,,,,,,2025-06-26,,,,,,,,,,,,,,,,54.94574,-4.593,POINT (-4.593 54.94574)
11550,16702,12798438,2025-11-09,Clearstone Energy Limited,"Warley Energy Hub, Ockenden - Battery Energy Storage System",Battery,Stand-alone Storage,,0.20,,No,,,,,,,,,Planning Permission Granted,Awaiting Construction,,,"Warley Energy Hub, St Marys Lane North, Ockenden, Upminster",Essex,London,England,RM14 3PA,559878,187108,Havering,P1498.24,,,,,,2024-11-11,,,,,,,2025-05-08,,,,2030-08-05,,,,,51.5602,0.30501,POINT (0.30501 51.5602)
11555,16707,12795592,2025-12-05,Albanwise Synergy Limited,"Nowhere Lane, Norwich - Solar Photovoltaic Panels ",Solar Photovoltaics,,,40.00,,No,,,,,,,,Ground,Planning Permission Granted,Awaiting Construction,,,"E/O Nowhere Lane, Reepham, Norwich",Norfolk,Eastern,England,NR10 4RL,607845,322069,South Norfolk,2024/3676,,,,,,2024-12-09,,,,,,,,,,,2028-04-28,,,,628000.00,52.75623,1.07861,POINT (1.07861 52.75623)
11556,16708,12795592,2025-12-05,Albanwise Synergy Limited,"Nowhere Lane, Norwich - Battery Energy Storage",Battery,Stand-alone Storage,,,,No,,,,,,,,,Planning Permission Granted,Awaiting Construction,,,"E/O Nowhere Lane, Reepham, Norwich",Norfolk,Eastern,England,NR10 4RL,607845,322069,South Norfolk,2024/3676,,,,,,2024-12-09,,,,,,,,,,,2028-04-28,,,,,52.75623,1.07861,POINT (1.07861 52.75623)
11573,16726,12796952,2025-08-07,Severn Trent Green Power Limited,"Wallingford AD Plant, Benson Lane - Solar panels",Solar Photovoltaics,,,0.18,,No,,,,,,,,Roof,Planning Permission Granted,Awaiting Construction,,,"Wallingford AD Plant, Benson Lane",Oxfordshire,South East,England,OX10 6SQ,462097,190599,South Oxfordshire,MW.0074/24,,,,,,2024-07-03,,,,,,,,,,,,,,,,51.61081,-1.10463,POINT (-1.10463 51.61081)
11588,16745,12796138,2025-12-05,Ethical Power Development Limited,Langer Lane Solar Farm,Solar Photovoltaics,,,7.50,,No,,,,,,,,Ground,Planning Permission Granted,Awaiting Construction,,,"E/O Langer Lane, Wingerworth, Chesterfield",Derbyshire,East Midlands,England,S42 6TS,437455,367980,North East Derbyshire,24/00506/MFL,,,,,,2024-07-12,,,,,,,,,,,2028-04-17,,,,98055.33,53.20757,-1.44067,POINT (-1.44067 53.20757)
11595,16754,12796148,2025-12-05,AMP Clean Energy Services,"Hornet Close, Pysons Road Industrial Estate - Energy Storage Facility",Battery,Stand-alone Storage,,0.20,,No,,,,,,,,,Planning Permission Granted,Awaiting Construction,,,"Hornet Close, Pysons Road Industrial Estate, Broadstairs",Kent,South East,England,CT10 2YB,637554,167438,Thanet,F/TH/24/0772,,,,,,2024-07-19,,,,,,,,,,,2028-04-24,,,,,51.35632,1.41058,POINT (1.41058 51.35632)
11651,16832,12797280,2025-10-02,Brixton Investments (Hemel Hempstead) Limited,"Sergo Park Greenford Central, Phase 1A - Industrial, Warehouse & Offices",Solar Photovoltaics,,,0.38,,No,,,,,,,,Roof,Planning Permission Granted,Awaiting Construction,,," Units 418, 419-420, 20A And 21 Derby Road Greenford Central",Middlesex,London,England,UB6 8UJ,513708,183847,Ealing,242581FUL,,,,,,2024-07-15,,,,,,,,,,,2028-01-21,,,,18600.00,51.54208,-0.36174,POINT (-0.36174 51.54208)
11657,16838,12800327,2025-10-03,Bartypower Limited,"Glyngwernen Farm, Uchaf Fawr -  Solar Farm ",Solar Photovoltaics,,16839,8.36,,No,,,,,,,,Ground,Planning Permission Granted,Awaiting Construction,,,"N/O Glyngwernen Farm, Uchaf Fawr, Felinfoel, Llanelli, Dyfed",Pembrokeshire,Wales,Wales,SA14 8QA,253665,202573,Carmarthenshire,PL/08017,,,,,,2024-07-17,,,,,,,,,,,2030-02-17,,,,128000.00,51.70276,-4.11905,POINT (-4.11905 51.70276)
11658,16839,12800327,2025-10-03,Bartypower Limited,"Glyngwernen Farm, Uchaf Fawr - Battery Storage",Battery,Co-located with RE,16838,2.00,,No,,,,,,,,,Planning Permission Granted,Awaiting Construction,,,"N/O Glyngwernen Farm, Uchaf Fawr, Felinfoel, Llanelli, Dyfed",Pembrokeshire,Wales,Wales,SA14 8QA,253665,202573,Carmarthenshire,PL/08017,,,,,,2024-07-17,,,,,,,,,,,2030-02-17,,,,,51.70276,-4.11905,POINT (-4.11905 51.70276)
11662,16845,12798282,2025-10-06,AMP Clean Energy,"Mount Road & Prigmore Drive, Great Barton - Battery Energy Storage System",Battery,Stand-alone Storage,,0.20,,No,,,,,,,,,Appeal Granted,Awaiting Construction,,,Access Road From C692 To The Flying Fortress Ph Great Barton,Suffolk,Eastern,England,IP32 7FB,588525,265008,West Suffolk,DC/24/0971/FUL,AP/25/0003/STAND,,,,,2024-07-10,,2025-10-01,2025-02-05,,,,,,,,,,,,,52.25094,0.76039,POINT (0.76039 52.25094)
11665,16853,12592930,2025-12-05,RNA Energy Limited,"Lower Ellenden Farm, Water Lane - Solar Panels ",Solar Photovoltaics,,,,,No,,,,,,,,Ground,Planning Permission Refused,Application Refused,,14863,"Lower Ellenden Farm, Water Lane, Hawkhurst, Cranbrook",Kent,South East,England,TN18 5AX,576891,131511,Tunbridge Wells,24/01768/FULL,,,,,,2024-07-18,,2025-01-05,,,,,,,,,,,,,148500.00,51.0557,0.52265,POINT (0.52265 51.0557)
11666,16854,12592930,2025-12-05,RNA Energy Limited,"Lower Ellenden Farm, Water Lane - Battery Storage",Battery,Stand-alone Storage,,,,No,,,,,,,,,Planning Permission Refused,Application Refused,,14864,"Lower Ellenden Farm, Water Lane, Hawkhurst, Cranbrook",Kent,South East,England,TN18 5AX,576891,131511,Tunbridge Wells,24/01768/FULL,,,,,,2024-07-18,,2025-01-05,,,,,,,,,,,,,,51.0557,0.52265,POINT (0.52265 51.0557)
11702,16905,12802005,2025-12-05,PS Renewables Limited,"Feeringbury Farm, Coggeshall Road - Solar Farm",Solar Photovoltaics,,,15.00,,No,,,,,,,,Ground,Planning Permission Granted,Awaiting Construction,,,"Feeringbury Farm, Coggeshall Road, Feering, Colchester",Essex,Eastern,England,CO5 9RB,586398,221506,Braintree,24/02658/FUL,,,,,,2024-12-17,,,,,,,2025-03-04,,,,2028-04-03,,,,228500.00,51.861,0.70555,POINT (0.70555 51.861)
11707,16910,12786447,2025-10-06,Condate Biogas Limited,"Great Hele Barton, Condate Biogas - Anaerobic Digestion Plant Expansion",Anaerobic Digestion,,,,,No,,,,,,,,,Planning permission granted,Awaiting Construction,,,"Great Hele Barton, Condate Biogas, Alswear Old Road, South Molton",Devon,South West,England,EX36 4LB,271493,124561,North Devon,78712,,,,,,2024-06-13,,,,,,,,,,,2028-05-14,,,,,51.00604,-3.833,POINT (-3.833 51.00604)
11710,16914,12803455,2025-11-09,Enviromena,"Motcombe Road, Motcombe - Solar Pv Arrays",Solar Photovoltaics,,,12.00,,No,,,,,,,,Ground,Planning Application Submitted,Application Submitted,,,"S/O Motcombe Road, Motcombe, Shaftesbury",Dorset,South West,England,SP7 9LD,386151,124127,Dorset,P/FUL/2025/03674,,,,,,2025-07-29,,,,,,,,,,,,,,,,51.01635,-2.1988,POINT (-2.1988 51.01635)
11713,16919,12592785,2025-12-05,RNA Energy Limited,"Netters Farm, Attwaters Lane - Solar Pv Array ",Solar Photovoltaics,,,10.00,,No,,,,,,,,Ground,Planning Permission Refused,Application Refused,,14861,"Netters Farm, Attwaters Lane, Hawkhurst, Cranbrook",Kent,South East,England,TN18 5AT,577710,133078,Tunbridge Wells,24/01767/FULL,,,,,,2024-07-18,,2025-01-05,,,,,,,,,,,,,168700.00,51.06952,0.53509,POINT (0.53509 51.06952)
11714,16920,12592785,2025-12-05,RNA Energy Limited,"Netters Farm, Attwaters Lane -  Battery Energy Storage",Battery,Stand-alone Storage,,,,No,,,,,,,,,Planning Permission Refused,Application Refused,,14862,"Netters Farm, Attwaters Lane, Hawkhurst, Cranbrook",Kent,South East,England,TN18 5AT,577710,133078,Tunbridge Wells,24/01767/FULL,,,,,,2024-07-18,,2025-01-05,,,,,,,,,,,,,,51.06952,0.53509,POINT (0.53509 51.06952)
11728,16937,12802840,2025-08-07,Energiekontor (UK) Limited,Coille Linne Wind Farm-  Wind Turbines ,Wind Onshore,,16938,108.50,,No,,,,,7.20,15,250.00,,Planning Application Submitted,Application Submitted,,,"21.9km Nw/o Lairg, 16km Se/o Altnaharra, Lairg",Highland,Scotland,Scotland,IV27 4BJ,258395,906367,Scottish Government (S36),ECU00005163,,,,,,2025-06-18,,,,,,,,,,,,,,,,58.02381,-4.39916,POINT (-4.39916 58.02381)
11729,16938,12802840,2025-08-07,Energiekontor (UK) Limited,Coille Linne Wind Farm - Battery Energy Storage,Battery,Co-located with RE,16937,5.00,,No,,,,,,,,,Planning Application Submitted,Application Submitted,,,"21.9km Nw/o Lairg, 16km Se/o Altnaharra, Lairg",Highland,Scotland,Scotland,IV27 4BJ,258395,906367,Scottish Government (S36),ECU00005163,,,,,,2025-06-18,,,,,,,,,,,,,,,,58.02381,-4.39916,POINT (-4.39916 58.02381)
11734,16943,12802893,2025-08-04,Future Biogas Limited,"Market Weighton Road, Barlby - Anaerobic Digestion Facility",Anaerobic Digestion,,,,,No,,,,,,,,,Planning Application Submitted,Application Submitted,,,"Market Weighton Road, Barlby, Selby",North Yorkshire,Yorkshire and Humber,England,YO8 5LD,464588,436292,North Yorkshire,ZG2025/0117/FULM,,,,,,2025-03-07,,,,,,,,,,,,,,,,53.8189,-1.02042,POINT (-1.02042 53.8189)
11743,16962,12799524,2025-11-04,Numatic International Limited,Fordham Grange - Solar Panels ,Solar Photovoltaics,,16963,1.93,,No,,,,,,,,Ground,Planning Permission Granted,Awaiting Construction,,,"R/O Nursery Gardens & Fordham Grange, Nursery Gardens, Chard",Somerset,South West,England,TA20 1HA,333300,108740,Somerset,24/01588/FUL,,,,,,2024-07-29,,,,,,,2025-05-03,,,,2028-03-05,,,,29700.00,50.87429,-2.94935,POINT (-2.94935 50.87429)
11744,16963,12799524,2025-11-04,Numatic International Limited,Fordham Grange -  Battery energy storage,Battery,Co-located with RE,16962,,,No,,,,,,,,,Planning Permission Granted,Awaiting Construction,,,"R/O Nursery Gardens & Fordham Grange, Nursery Gardens, Chard",Somerset,South West,England,TA20 1HA,333300,108740,Somerset,24/01588/FUL,,,,,,2024-07-29,,,,,,,2025-05-03,,,,2028-03-05,,,,,50.87429,-2.94935,POINT (-2.94935 50.87429)
11750,16971,12803286,2025-08-08,AMP Clean Energy,"Sewage Pumping Station, Rushbottom Lane - Micro Energy Storage",Battery,Stand-alone Storage,,0.20,,No,,,,,,,,,Revised,Revised,19176,,"Sewage Pumping Station, Rushbottom Lane, Benfleet",Essex,Eastern,England,SS7 4LW,576649,189233,Castle Point,24/0456/FUL,,,,,,2024-08-19,,,,,,,,,,,,,,,,51.57428,0.54777,POINT (0.54777 51.57428)
11752,16974,12678491,2025-10-02,Coventry Energy Storage Limited,"Hodgetts Lane, Berkswell - Electricity Storage Facility",Battery,Stand-alone Storage,,49.90,,No,,,,,,,,,Planning Application Submitted,Application Submitted,,15230,"E/O Hodgetts Lane, Berkswell, Solihull",West Midlands,West Midlands,England,CV7 7DF,426599,276542,Solihull,PL/2024/01261/PPFL,,,,,,2024-07-02,,,,,,,,,,,,,,,,52.38627,-1.61061,POINT (-1.61061 52.38627)
11771,17000,12804523,2025-08-07,SSE Renewables Ireland Limited,Eggborough Battery Energy Storage System,Battery,Stand-alone Storage,,550.00,,No,,,,,,,,,Planning Permission Granted,Awaiting Construction,,,"Roall Lane, Kellington, Goole",East Riding of Yorkshire,Yorkshire and Humber,England,DN14 0NY,455370,425051,North Yorkshire,ZG2024/1306/FULM,,,,,,2024-06-12,,,,,,,,,,,2028-05-30,,,,,53.71894,-1.16243,POINT (-1.16243 53.71894)
